[{"nom": "Ball trap des Lochereaux", "lat": -0.30744, "lng": 47.28928, "commune": "Tuffalun", "tags": ["basket"]}, {"nom": "stand tir plateaux", "lat": 2.28987, "lng": 50.63754, "commune": "Mametz", "tags": ["football", "basket", "handball"]}, {"nom": "Pas de tir aux plateaux", "lat": -0.28541, "lng": 45.50716, "commune": "Saint-Eugène", "tags": ["football"]}, {"nom": "Fosse", "lat": 6.02583, "lng": 48.66069, "commune": "Maron", "tags": []}, {"nom": "Tir à l'arc parcours nature", "lat": 5.124, "lng": 46.56167, "commune": "La Chapelle-Thècle", "tags": ["petanque"]}, {"nom": "Site d'aéromodélisme", "lat": 2.37371, "lng": 47.07198, "commune": "Brécy", "tags": ["football"]}, {"nom": "Aérodrome", "lat": 2.782754, "lng": 47.613981, "commune": "Briare", "tags": ["football", "handball"]}, {"nom": "SITE D'AEROMODELISME", "lat": 5.32038, "lng": 48.03936, "commune": "Nogent", "tags": ["football"]}, {"nom": "Les Courlis", "lat": 7.568889, "lng": 48.45584, "commune": "Meistratzheim", "tags": ["petanque"]}, {"nom": "Croisement du Rott", "lat": 7.921944, "lng": 49.02611, "commune": "Rott", "tags": ["petanque"]}, {"nom": "Piste de modélisme et aéromodélisme", "lat": 7.45666667, "lng": 43.87777778, "commune": "Sospel", "tags": ["football", "basket", "handball"]}, {"nom": "CITY STADE", "lat": 2.7219, "lng": 43.26802, "commune": "Homps", "tags": ["tennis"]}, {"nom": "CITY STADE", "lat": 4.18479458293983, "lng": 43.5731971665335, "commune": "Aigues-Mortes", "tags": ["football", "basket", "handball"]}, {"nom": "PLATEFORME BASKET", "lat": 1.66545770021912, "lng": 47.9300397500265, "commune": "Coulmiers", "tags": ["football", "handball"]}, {"nom": "TERRAIN DE PROXIMITE", "lat": 3.13246, "lng": 50.35726, "commune": "Dechy", "tags": ["petanque"]}, {"nom": "TERRAIN DE BASKET-BALL", "lat": 2.73391, "lng": 42.69532, "commune": "Corneilla-la-Rivière", "tags": ["petanque"]}, {"nom": "TERRAIN DE BASKET-BALL", "lat": 2.85942, "lng": 42.57098, "commune": "Banyuls-dels-Aspres", "tags": ["petanque"]}, {"nom": "Terrain de basket-ball", "lat": 6.17656, "lng": 48.6507, "commune": "Houdemont", "tags": []}, {"nom": "terrain multi-sports intercommunal", "lat": -0.739492178017827, "lng": 49.0197455584894, "commune": "Dialan sur Chaîne", "tags": ["football", "basket"]}, {"nom": "CITY PARK", "lat": -0.555284321308136, "lng": 43.8245207434984, "commune": "Haut-Mauco", "tags": ["football"]}, {"nom": "City-stade", "lat": -0.461251437664032, "lng": 43.1333636436449, "commune": "Buzy", "tags": ["petanque"]}, {"nom": "city-stade", "lat": -0.112104707624645, "lng": 47.3751082876278, "commune": "Longué-Jumelles", "tags": ["petanque"]}, {"nom": "city-stade", "lat": -0.584235652835934, "lng": 47.4895845405567, "commune": "Avrillé", "tags": ["petanque"]}, {"nom": "city-stade", "lat": -0.767561910376178, "lng": 47.4064079423262, "commune": "Saint-Georges-sur-Loire", "tags": ["petanque"]}, {"nom": "City Stade", "lat": -0.904537, "lng": 48.382649, "commune": "Carelles", "tags": ["petanque"]}, {"nom": "City stade de Canet", "lat": 2.85053908824921, "lng": 43.2307214140019, "commune": "Canet", "tags": ["basket"]}, {"nom": "Terrain multisport", "lat": 3.25656116008759, "lng": 45.615815495577, "commune": "Yronde-et-Buron", "tags": ["petanque"]}, {"nom": "City stade", "lat": -2.725998, "lng": 47.910209, "commune": "Saint-Allouestre", "tags": ["football", "basket", "tennis", "handball"]}, {"nom": "City Stade", "lat": 3.930193, "lng": 48.935675, "commune": "Villers-aux-Bois", "tags": ["football"]}, {"nom": "City stade", "lat": 2.38137960439417, "lng": 43.1750655769429, "commune": "Palaja", "tags": ["tennis"]}, {"nom": "City Stade", "lat": 4.32934, "lng": 48.3062, "commune": "Géraudot", "tags": ["tennis"]}, {"nom": "Plateau Multisports", "lat": -1.61545962095261, "lng": 47.9699097978664, "commune": "Chanteloup", "tags": ["football"]}, {"nom": "City stade", "lat": 3.511882, "lng": 49.603799, "commune": "Crépy", "tags": ["petanque"]}, {"nom": "Plateau de sport", "lat": 2.940696, "lng": 46.733837, "commune": "Lurcy-Lévis", "tags": ["football", "basket"]}, {"nom": "City-stade", "lat": 0.0754236273599229, "lng": 47.3419105154562, "commune": "La Breille-les-Pins", "tags": ["football", "basket", "handball", "volley"]}, {"nom": "city-stade", "lat": -0.342488156753502, "lng": 47.1745648947335, "commune": "Doué-en-Anjou", "tags": ["football", "basket", "handball", "volley"]}, {"nom": "city-stade", "lat": -0.278925024694305, "lng": 47.1968476528479, "commune": "Doué-en-Anjou", "tags": ["football", "basket", "handball", "volley"]}, {"nom": "City Stade", "lat": 1.47022068500519, "lng": 43.6166363228246, "commune": "Toulouse", "tags": ["football"]}, {"nom": "Citystade", "lat": -1.33189111948013, "lng": 47.6850839636085, "commune": "Erbray", "tags": ["football"]}, {"nom": "City Stade", "lat": -1.6166827082634, "lng": 47.5237181805652, "commune": "Puceul", "tags": ["football"]}, {"nom": "City Stade", "lat": 2.43709400296211, "lng": 47.9963191330171, "commune": "Quiers-sur-Bezonde", "tags": ["football"]}, {"nom": "city-stade", "lat": -0.0649707026354518, "lng": 47.2143703365372, "commune": "Bellevigne-les-Châteaux", "tags": ["petanque"]}, {"nom": "city-stade", "lat": -1.16668276487988, "lng": 47.3425213209393, "commune": "Orée d'Anjou", "tags": ["petanque"]}, {"nom": "CITY STADE", "lat": 3.260953, "lng": 45.470646, "commune": "Le Breuil-sur-Couze", "tags": ["petanque"]}, {"nom": "City stade", "lat": 4.70981644662208, "lng": 46.235047727473, "commune": "Juliénas", "tags": ["petanque"]}, {"nom": "terrain multisports", "lat": 6.129433, "lng": 48.532779, "commune": "Autrey", "tags": []}, {"nom": "city stade", "lat": 6.040988, "lng": 48.908115, "commune": "Pont-à-Mousson", "tags": []}, {"nom": "terrain multisports", "lat": 4.031911, "lng": 48.296021, "commune": "Sainte-Savine", "tags": ["tennis"]}, {"nom": "City Stade", "lat": -0.608373284339905, "lng": 48.3680436515506, "commune": "La Haie-Traversaine", "tags": ["petanque"]}, {"nom": "city-stade", "lat": -0.556266569639428, "lng": 47.487291928228, "commune": "Angers", "tags": ["basket"]}, {"nom": "Terrain multisports", "lat": 4.37140792608261, "lng": 48.1220116823594, "commune": "Bar-sur-Seine", "tags": ["basket"]}, {"nom": "City Stade", "lat": 3.676032, "lng": 48.4365, "commune": "Saint-Martin-de-Bossenay", "tags": ["basket"]}, {"nom": "City Stade", "lat": 3.45324218273163, "lng": 46.182875560651, "commune": "Creuzier-le-Neuf", "tags": ["football", "basket"]}, {"nom": "Microsite de la Ferrage", "lat": 7.140242, "lng": 43.745888, "commune": "Saint-Jeannet", "tags": ["football", "basket", "handball"]}, {"nom": "citystade", "lat": 4.38589688577371, "lng": 45.4856100600141, "commune": "La Tour-en-Jarez", "tags": ["football", "basket", "handball"]}, {"nom": "Citystade", "lat": 4.35378532727785, "lng": 45.8515036605267, "commune": "Violay", "tags": ["football", "basket", "handball"]}, {"nom": "Terrain multisports", "lat": 3.26676502503175, "lng": 45.388408144368, "commune": "Lempdes-sur-Allagnon", "tags": ["football", "basket", "handball"]}, {"nom": "City stade", "lat": 3.90814722772348, "lng": 45.9652767251494, "commune": "Cherier", "tags": ["football", "basket", "handball"]}, {"nom": "city stade", "lat": 5.84245, "lng": 48.61117, "commune": "Mont-le-Vignoble", "tags": ["football", "basket", "handball"]}, {"nom": "city stade", "lat": 6.124161, "lng": 48.549486, "commune": "Pierreville", "tags": ["football", "basket", "handball"]}, {"nom": "City stade", "lat": 5.869429, "lng": 48.779103, "commune": "Royaumeix", "tags": ["football", "basket", "handball"]}, {"nom": "terrain multisports", "lat": 6.098103, "lng": 48.564323, "commune": "Xeuilley", "tags": ["football", "basket", "handball"]}, {"nom": "city stade", "lat": 5.128327, "lng": 48.826139, "commune": "Chardogne", "tags": ["football", "basket", "handball"]}, {"nom": "city stade", "lat": 5.34257, "lng": 48.85944, "commune": "Villotte-sur-Aire", "tags": ["football", "basket", "handball"]}, {"nom": "terrain multisports", "lat": 4.990477, "lng": 49.653252, "commune": "Remilly-Aillicourt", "tags": ["football", "basket", "handball"]}, {"nom": "terrain multisports", "lat": 3.93501, "lng": 48.4768, "commune": "Droupt-Saint-Basle", "tags": ["football", "basket", "tennis", "handball", "volley"]}, {"nom": "terrain multisports", "lat": 3.910068, "lng": 48.423906, "commune": "Fontaine-les-Grès", "tags": ["football", "basket", "tennis", "handball", "volley"]}, {"nom": "terrain multisport", "lat": 4.396883, "lng": 48.095607, "commune": "Merrey-sur-Arce", "tags": ["football", "basket", "tennis", "handball", "volley"]}, {"nom": "terrain multsiports", "lat": 3.506924, "lng": 48.493277, "commune": "Nogent-sur-Seine", "tags": ["football", "basket", "tennis", "handball", "volley"]}, {"nom": "City Stade", "lat": 6.36440187692642, "lng": 48.7946447411915, "commune": "Bioncourt", "tags": ["football", "basket", "tennis", "handball", "volley"]}, {"nom": "city-stade", "lat": -0.0656252354304154, "lng": 47.6251134018231, "commune": "Baugé-en-Anjou", "tags": ["football", "basket", "handball", "volley"]}, {"nom": "city-stade", "lat": -0.233035420541288, "lng": 47.4563711073175, "commune": "Beaufort-en-Anjou", "tags": ["football", "basket", "handball", "volley"]}, {"nom": "city-stade", "lat": -0.446166694164276, "lng": 47.3025596207862, "commune": "Terranjou", "tags": ["football", "basket", "handball", "volley"]}, {"nom": "city-stade", "lat": -0.718257161669147, "lng": 47.214142475819, "commune": "Chemillé-en-Anjou", "tags": ["football", "basket", "handball", "volley"]}, {"nom": "city-stade", "lat": -0.194634328965866, "lng": 47.4882538953853, "commune": "Les Bois d'Anjou", "tags": ["football", "basket", "handball", "volley"]}, {"nom": "city-stade", "lat": -0.30998021364212, "lng": 47.237487458446, "commune": "Louresse-Rochemenier", "tags": ["football", "basket", "handball", "volley"]}, {"nom": "city-stade", "lat": -0.889634591052695, "lng": 47.4626232320924, "commune": "Val d'Erdre-Auxence", "tags": ["football", "basket", "handball", "volley"]}, {"nom": "terrain multisports de Pouillé", "lat": -0.532710352120294, "lng": 47.4315468385699, "commune": "Les Ponts-de-Cé", "tags": ["football", "basket", "tennis", "volley"]}, {"nom": "City-stade (Ecole Voltaire)", "lat": 2.132257, "lng": 49.236726, "commune": "Méru", "tags": ["basket", "tennis", "handball"]}, {"nom": "Citystade", "lat": 4.80796013152666, "lng": 44.5959821584089, "commune": "Saint-Marcel-lès-Sauzet", "tags": ["basket", "tennis", "handball", "volley"]}, {"nom": "Terrain Multisports", "lat": 4.468941, "lng": 43.898753, "commune": "Cabrières", "tags": ["basket", "tennis"]}, {"nom": "TERRAIN MULTISPORTS", "lat": 1.52366359223379, "lng": 43.4568228005446, "commune": "Montbrun-Lauragais", "tags": []}, {"nom": "Plateau Multisports", "lat": -1.43011, "lng": 46.22715, "commune": "Loix", "tags": ["football"]}, {"nom": "CITY STADE", "lat": -0.953093, "lng": 45.559189, "commune": "Meschers-sur-Gironde", "tags": ["football"]}, {"nom": "City stade", "lat": -1.0322642326355, "lng": 45.709820763376, "commune": "Mornac-sur-Seudre", "tags": ["football"]}, {"nom": "City park", "lat": -0.572174, "lng": 46.01144, "commune": "Essouvert", "tags": ["football"]}, {"nom": "City Stade", "lat": -0.750128030776978, "lng": 45.5984483063026, "commune": "Saint-André-de-Lidon", "tags": ["football"]}, {"nom": "City-Stade", "lat": 1.63981676101685, "lng": 45.3509128116397, "commune": "Lagraulière", "tags": ["football"]}, {"nom": "City-stade", "lat": 1.37586057186127, "lng": 45.2079501863414, "commune": "Yssandon", "tags": ["football"]}, {"nom": "City-stade", "lat": 1.70278966426849, "lng": 45.4311353688817, "commune": "Chamboulive", "tags": ["football"]}, {"nom": "TERRAIN MULTISPORTS", "lat": 2.04367160797119, "lng": 45.4071683784981, "commune": "Égletons", "tags": ["football"]}, {"nom": "city stade", "lat": 4.28429, "lng": 49.305557, "commune": "Selles", "tags": ["football"]}, {"nom": "city stade", "lat": 3.805096, "lng": 49.183393, "commune": "Ville-en-Tardenois", "tags": ["football"]}, {"nom": "City stade", "lat": 4.98846, "lng": 48.6674, "commune": "Chancenay", "tags": ["football"]}, {"nom": "COURT DE TENNIS", "lat": 5.55733, "lng": 48.20877, "commune": "Illoud", "tags": ["football"]}, {"nom": "Plateau EPS", "lat": -0.227000713348389, "lng": 48.3323170729902, "commune": "Averton", "tags": ["football"]}, {"nom": "City Stade", "lat": -0.990947484970093, "lng": 47.8146310321222, "commune": "Bouchamps-lès-Craon", "tags": ["football"]}, {"nom": "City Stade", "lat": -0.25069534778595, "lng": 48.3087596959592, "commune": "Courcité", "tags": ["football"]}, {"nom": "City stade", "lat": 5.12208566441959, "lng": 45.142630385464, "commune": "Saint-Michel-sur-Savasse", "tags": ["football"]}, {"nom": "City Park", "lat": 5.27842748453773, "lng": 44.5678647114274, "commune": "Saint-Nazaire-le-Désert", "tags": ["football"]}, {"nom": "City Stade", "lat": -0.809184908866882, "lng": 48.4120875940146, "commune": "Gorron", "tags": ["football"]}, {"nom": "City Stade", "lat": -0.729212164878845, "lng": 47.9530546522805, "commune": "Origné", "tags": ["football"]}, {"nom": "City Stade", "lat": -1.1095654964447, "lng": 47.8966437652399, "commune": "La Roë", "tags": ["football"]}, {"nom": "city stade", "lat": -0.639492273330689, "lng": 48.2800841450081, "commune": "Saint-Baudelle", "tags": ["football"]}, {"nom": "City stade", "lat": 6.009751, "lng": 48.739065, "commune": "Aingeray", "tags": ["football"]}, {"nom": "fronton", "lat": 6.456499, "lng": 48.619611, "commune": "Deuxville", "tags": ["football"]}, {"nom": "city stade", "lat": 5.842208, "lng": 48.678764, "commune": "Écrouves", "tags": ["football"]}, {"nom": "City stade", "lat": 6.18939, "lng": 48.707277, "commune": "Malzéville", "tags": ["football"]}, {"nom": "city stade", "lat": 5.958041, "lng": 48.874593, "commune": "Mamey", "tags": ["football"]}, {"nom": "City Stade", "lat": 6.5935429930687, "lng": 48.5894253794784, "commune": "Marainviller", "tags": ["football"]}, {"nom": "Decapark", "lat": 5.881941, "lng": 48.841744, "commune": "Noviant-aux-Prés", "tags": ["football"]}, {"nom": "City stade", "lat": 6.392946, "lng": 48.700361, "commune": "Réméréville", "tags": ["football"]}, {"nom": "city stade", "lat": 6.047127, "lng": 48.545997, "commune": "Thélod", "tags": ["football"]}, {"nom": "City Stade Juncasse", "lat": 1.47541612386704, "lng": 43.6127332735073, "commune": "Toulouse", "tags": ["football"]}, {"nom": "City Stade", "lat": 1.39748237016729, "lng": 43.5622116604093, "commune": "Toulouse", "tags": ["football"]}, {"nom": "City stade", "lat": -0.958771705627442, "lng": 44.6361810592097, "commune": "Biganos", "tags": ["football"]}, {"nom": "City Stade jardin du Barry", "lat": 1.40231219220836, "lng": 43.6014236070038, "commune": "Toulouse", "tags": ["football"]}, {"nom": "City stade Negreneys", "lat": 1.44296149197729, "lng": 43.6202475571522, "commune": "Toulouse", "tags": ["football"]}, {"nom": "City stade Maria Combes - Grand Selve", "lat": 1.4487713461634, "lng": 43.6501256306478, "commune": "Toulouse", "tags": ["football"]}, {"nom": "City Stade parc des Sept Deniers", "lat": 1.41472309827805, "lng": 43.6194481673041, "commune": "Toulouse", "tags": ["football"]}, {"nom": "City stade", "lat": -0.953965187072754, "lng": 44.6502081143681, "commune": "Biganos", "tags": ["football"]}, {"nom": "City-stade", "lat": -1.02106869220734, "lng": 44.6368906772854, "commune": "Le Teich", "tags": ["football"]}, {"nom": "CITY STADE", "lat": -0.273424386978149, "lng": 44.9912205467281, "commune": "Galgon", "tags": ["football"]}, {"nom": "City Stade", "lat": -0.735987424850464, "lng": 44.9103214996277, "commune": "Saint-Aubin-de-Médoc", "tags": ["football"]}, {"nom": "City Stade", "lat": -0.50637, "lng": 45.037505, "commune": "Prignac-et-Marcamps", "tags": ["football"]}, {"nom": "City Park", "lat": 5.15859488354564, "lng": 45.5877553938373, "commune": "Roche", "tags": ["football"]}, {"nom": "Plateau sportif", "lat": 5.92068214950365, "lng": 45.2378848388223, "commune": "Sainte-Agnès", "tags": ["football"]}, {"nom": "City stade", "lat": -2.06986067840421, "lng": 47.3230879491309, "commune": "Donges", "tags": ["football"]}, {"nom": "City-stade Marc Lanvin", "lat": 2.754342, "lng": 50.407408, "commune": "Angres", "tags": []}, {"nom": "City Park", "lat": 1.48430228233337, "lng": 47.6332031873836, "commune": "Maslives", "tags": ["football", "basket", "handball"]}, {"nom": "CITY STADES", "lat": 1.70137957342376, "lng": 43.4299220681714, "commune": "Montgaillard-Lauragais", "tags": ["petanque"]}, {"nom": "City park", "lat": 1.201282, "lng": 44.339574, "commune": "Montcuq-en-Quercy-Blanc", "tags": ["petanque"]}, {"nom": "City Stade", "lat": 4.09766703844071, "lng": 49.0853276344555, "commune": "Val de Livre", "tags": ["petanque"]}, {"nom": "City Stade", "lat": 4.93184477090836, "lng": 48.0793439892513, "commune": "Orges", "tags": ["petanque"]}, {"nom": "City Stade", "lat": -0.775142312049866, "lng": 48.1791294719332, "commune": "Andouillé", "tags": ["petanque"]}, {"nom": "city-stade", "lat": 0.064894948356562, "lng": 47.3000455685458, "commune": "Brain-sur-Allonnes", "tags": ["petanque"]}, {"nom": "City Stade", "lat": -0.715591907501221, "lng": 47.9013228368066, "commune": "La Roche-Neuville", "tags": ["petanque"]}, {"nom": "City Stade", "lat": -0.787947177886963, "lng": 47.9819765473635, "commune": "Nuillé-sur-Vicoin", "tags": ["petanque"]}, {"nom": "City Stade", "lat": -0.96781075000763, "lng": 48.11643260114, "commune": "Port-Brillet", "tags": ["petanque"]}, {"nom": "city-stade", "lat": -0.419457256793976, "lng": 47.7467438388719, "commune": "Morannes sur Sarthe-Daumeray", "tags": ["petanque"]}, {"nom": "city stade", "lat": 0.0139550641214337, "lng": 47.5348827778984, "commune": "Noyant-Villages", "tags": ["petanque"]}, {"nom": "City Stade", "lat": -0.531254410743714, "lng": 47.9667233012917, "commune": "Saint-Denis-du-Maine", "tags": ["petanque"]}, {"nom": "city-stade", "lat": -1.08676771529995, "lng": 47.726594926922, "commune": "Ombrée d'Anjou", "tags": ["petanque"]}, {"nom": "city stade", "lat": 6.845776, "lng": 48.573558, "commune": "Barbas", "tags": ["petanque"]}, {"nom": "city stade", "lat": 5.851657, "lng": 48.576076, "commune": "Bulligny", "tags": ["petanque"]}, {"nom": "citystade", "lat": -0.768679040226703, "lng": 47.0576356002753, "commune": "Toutlemonde", "tags": ["petanque"]}, {"nom": "City stade", "lat": 5.83512591068462, "lng": 48.645010588744, "commune": "Domgermain", "tags": ["petanque"]}, {"nom": "terrain multisports", "lat": 6.660172, "lng": 48.455289, "commune": "Fontenoy-la-Joûte", "tags": ["petanque"]}, {"nom": "city stade", "lat": 5.804206, "lng": 49.323654, "commune": "Landres", "tags": ["petanque"]}, {"nom": "city stade", "lat": -1.611697, "lng": 49.636551, "commune": "Cherbourg-en-Cotentin", "tags": ["petanque"]}, {"nom": "City Stade", "lat": 6.18700057268143, "lng": 49.0721297697861, "commune": "Metz", "tags": ["petanque"]}, {"nom": "City Stade", "lat": 6.16002827882767, "lng": 49.1372346950204, "commune": "Metz", "tags": ["petanque"]}, {"nom": "Plateau eps", "lat": 6.18300944566727, "lng": 49.1189283987941, "commune": "Metz", "tags": ["petanque"]}, {"nom": "city stade", "lat": 5.960922, "lng": 48.396763, "commune": "Tramont-Lassus", "tags": ["petanque"]}, {"nom": "City stade", "lat": -2.330848, "lng": 48.013056, "commune": "Néant-sur-Yvel", "tags": ["petanque"]}, {"nom": "City-stade Saint-pierre", "lat": 3.60202194834315, "lng": 50.4665754637202, "commune": "Condé-sur-l'Escaut", "tags": ["petanque"]}, {"nom": "City Stade", "lat": 6.61012440919876, "lng": 49.2413762478739, "commune": "Dalem", "tags": ["petanque"]}, {"nom": "City stade / multisports", "lat": 3.54019939899445, "lng": 45.7572607788994, "commune": "Courpière", "tags": ["petanque"]}, {"nom": "City-Stade", "lat": -0.818309, "lng": 43.359796, "commune": "Araujuzon", "tags": ["petanque"]}, {"nom": "city stade", "lat": 7.727691, "lng": 48.824, "commune": "Schweighouse-sur-Moder", "tags": ["petanque"]}, {"nom": "City Stade", "lat": 7.72773921489716, "lng": 48.5769155227926, "commune": "Strasbourg", "tags": ["petanque"]}, {"nom": "City Stade", "lat": 7.53903776407242, "lng": 48.0772222339373, "commune": "Kunheim", "tags": ["petanque"]}, {"nom": "City Stade", "lat": 7.37694650888443, "lng": 48.2294290931141, "commune": "Saint-Hippolyte", "tags": ["petanque"]}, {"nom": "Terrain multisports", "lat": 7.156016, "lng": 47.547782, "commune": "Ueberstrass", "tags": ["petanque"]}, {"nom": "city stade", "lat": 4.83354868166701, "lng": 45.7744255682318, "commune": "Lyon 5e Arrondissement", "tags": ["petanque"]}, {"nom": "terrain multisports", "lat": 7.238589, "lng": 47.487026, "commune": "Durlinsdorf", "tags": ["petanque"]}, {"nom": "City Stade", "lat": 7.01657563447952, "lng": 47.7564709376426, "commune": "Lauw", "tags": ["petanque"]}, {"nom": "Citystade", "lat": 4.75855043668356, "lng": 45.7453445020744, "commune": "Francheville", "tags": ["petanque"]}, {"nom": "City-stade", "lat": 4.70526718351906, "lng": 45.9158055766145, "commune": "Lucenay", "tags": ["petanque"]}, {"nom": "AIRE DE JEUX", "lat": 6.11566185951233, "lng": 45.9762520216107, "commune": "Cuvat", "tags": ["petanque"]}, {"nom": "AIRE DES NIDS", "lat": 6.72330021858215, "lng": 45.9248759924286, "commune": "Passy", "tags": ["petanque"]}, {"nom": "Country stade", "lat": 5.978851, "lng": 48.447952, "commune": "Battigny", "tags": []}, {"nom": "City stade", "lat": 5.821998, "lng": 48.662374, "commune": "Choloy-Ménillot", "tags": []}, {"nom": "City stade", "lat": -2.167439, "lng": 47.971223, "commune": "Beignon", "tags": []}, {"nom": "City stade", "lat": -2.484586, "lng": 47.531777, "commune": "Billiers", "tags": []}, {"nom": "City stade", "lat": 4.282096, "lng": 49.905097, "commune": "Signy-le-Petit", "tags": ["tennis"]}, {"nom": "city stade", "lat": 4.785887, "lng": 49.87296, "commune": "Tournavaux", "tags": ["tennis"]}, {"nom": "City stade Prat de Cest", "lat": 2.95624762773514, "lng": 43.1200809180791, "commune": "Bages", "tags": ["tennis"]}, {"nom": "City-stade", "lat": 2.881213, "lng": 43.95565, "commune": "Saint-Affrique", "tags": ["tennis"]}, {"nom": "PLATEAU EPS 1", "lat": 5.15417, "lng": 43.63524, "commune": "Pélissanne", "tags": ["tennis"]}, {"nom": "City-Stade", "lat": 1.16306236986929, "lng": 43.7931865096289, "commune": "Le Burgaud", "tags": ["tennis"]}, {"nom": "CITY-STADE DU LAC", "lat": 1.50035541851162, "lng": 43.6680017318737, "commune": "Saint-Jean", "tags": ["tennis"]}, {"nom": "City Stade", "lat": 1.46172612905502, "lng": 43.5801964932518, "commune": "Toulouse", "tags": ["tennis"]}, {"nom": "City stade de Launaguet", "lat": 1.43728099977343, "lng": 43.654721177639, "commune": "Toulouse", "tags": ["tennis"]}, {"nom": "City stade des ponts jumeaux", "lat": 1.41915410757065, "lng": 43.613028391411, "commune": "Toulouse", "tags": ["tennis"]}, {"nom": "City stade Renan", "lat": 1.44247591495514, "lng": 43.6360671484522, "commune": "Toulouse", "tags": ["tennis"]}, {"nom": "City Stade", "lat": 1.38054718698773, "lng": 43.6099159078887, "commune": "Toulouse", "tags": ["tennis"]}, {"nom": "Aire Multisports", "lat": 1.40656, "lng": 43.57234, "commune": "Toulouse", "tags": ["tennis"]}, {"nom": "City stade", "lat": 4.32155970628087, "lng": 45.3902253939213, "commune": "Le Chambon-Feugerolles", "tags": ["tennis"]}, {"nom": "Citystade", "lat": 4.05875001171069, "lng": 45.9999814958037, "commune": "Commelle-Vernay", "tags": ["tennis"]}, {"nom": "AGORESPACE", "lat": 5.85494041442871, "lng": 46.0477803489816, "commune": "Chêne-en-Semine", "tags": []}, {"nom": "AIRE PRES MONFORT", "lat": 6.70465350151062, "lng": 45.9175192369619, "commune": "Passy", "tags": []}, {"nom": "city stade", "lat": 4.502689, "lng": 49.24057, "commune": "Sainte-Marie-à-Py", "tags": ["petanque"]}, {"nom": "Citystade", "lat": 4.31483594677032, "lng": 45.1843429563195, "commune": "Montfaucon-en-Velay", "tags": ["football"]}, {"nom": "City stade", "lat": -1.5351676940918, "lng": 47.6210074751556, "commune": "Treffieux", "tags": ["football"]}, {"nom": "City Stade", "lat": -1.13554537296295, "lng": 47.8386759995552, "commune": "Saint-Aignan-sur-Roë", "tags": ["petanque"]}, {"nom": "City-stade de Bouillon", "lat": -0.497811, "lng": 43.4948, "commune": "Bouillon", "tags": ["petanque"]}, {"nom": "City stade", "lat": 2.691439, "lng": 48.111711, "commune": "Préfontaines", "tags": ["basket", "handball", "volley"]}, {"nom": "City stade", "lat": 0.190552175045013, "lng": 46.0276235728354, "commune": "Ruffec", "tags": ["football", "basket", "handball"]}, {"nom": "STADE", "lat": 5.76029181616666, "lng": 44.2593326774467, "commune": "Saint-Pierre-Avez", "tags": ["football", "basket", "handball"]}, {"nom": "CITY STADE", "lat": 6.19374, "lng": 44.47559, "commune": "Théus", "tags": ["football", "basket", "handball"]}, {"nom": "Citystade", "lat": 4.03127053294492, "lng": 45.9926040339524, "commune": "Villerest", "tags": ["football", "basket", "handball"]}, {"nom": "City stade", "lat": 6.11598908901215, "lng": 49.3030610693515, "commune": "Fameck", "tags": ["football", "basket", "tennis", "handball", "volley"]}, {"nom": "City stade", "lat": 2.951765, "lng": 43.233171, "commune": "Moussan", "tags": ["football", "basket", "handball", "volley"]}, {"nom": "City-Stade", "lat": -0.801822245121002, "lng": 46.2967424013073, "commune": "La Ronde", "tags": ["football"]}, {"nom": "Terrain multisport", "lat": 2.154717, "lng": 47.015449, "commune": "Plou", "tags": ["football"]}, {"nom": "City Stade", "lat": 4.36296164989472, "lng": 49.1326989367538, "commune": "Mourmelon-le-Grand", "tags": ["football"]}, {"nom": "City Stade", "lat": -1.062084, "lng": 48.20523, "commune": "La Croixille", "tags": ["football"]}, {"nom": "CITY STADE", "lat": 0.32764881843832, "lng": 43.5789891779314, "commune": "Montesquiou", "tags": ["football"]}, {"nom": "CITY STADE BRUN", "lat": -0.574628412723541, "lng": 44.8171957787895, "commune": "Bordeaux", "tags": ["football"]}, {"nom": "City stade", "lat": -0.653662383556366, "lng": 44.8456995557802, "commune": "Mérignac", "tags": ["football"]}, {"nom": "City stade", "lat": -0.7024, "lng": 45.053071, "commune": "Soussans", "tags": ["football"]}, {"nom": "CITY STADE", "lat": -1.26044511795044, "lng": 44.0339846727445, "commune": "Lit-et-Mixe", "tags": ["football"]}, {"nom": "City stade", "lat": 0.910151302814484, "lng": 47.6194858694986, "commune": "Neuville-sur-Brenne", "tags": ["football"]}, {"nom": "City stade", "lat": 1.30121268332005, "lng": 47.1368147760654, "commune": "Nouans-les-Fontaines", "tags": ["football"]}, {"nom": "CITY STADE", "lat": 2.20806321951386, "lng": 48.2978838220288, "commune": "Sermaises", "tags": ["football", "petanque"]}, {"nom": "City Stade Saint-Pierre", "lat": -0.207130908966064, "lng": 48.2116796289843, "commune": "Vimartin-sur-Orthe", "tags": ["petanque"]}, {"nom": "city stade", "lat": 7.06118, "lng": 49.108748, "commune": "Sarreguemines", "tags": ["petanque"]}, {"nom": "City Stade", "lat": 6.12827897071838, "lng": 49.3440087365799, "commune": "Terville", "tags": ["petanque"]}, {"nom": "Citystade", "lat": 3.12546283006668, "lng": 46.9944985381045, "commune": "Nevers", "tags": ["petanque"]}, {"nom": "City stade", "lat": 4.88016341706977, "lng": 45.7526025820706, "commune": "Lyon 3e Arrondissement", "tags": ["petanque"]}, {"nom": "City stade", "lat": 4.86836455512228, "lng": 45.7583095395405, "commune": "Lyon 3e Arrondissement", "tags": ["petanque"]}, {"nom": "City stade", "lat": 4.84559597409227, "lng": 45.7569762058446, "commune": "Lyon 3e Arrondissement", "tags": ["petanque"]}, {"nom": "Plateau multisports", "lat": 6.825831, "lng": 47.45352, "commune": "Valentigney", "tags": []}, {"nom": "CITY STADE", "lat": 0.95116138447338, "lng": 43.6670674681773, "commune": "Saint-Germier", "tags": ["tennis"]}, {"nom": "agorespace", "lat": 6.31731, "lng": 46.19136, "commune": "Lucinges", "tags": []}, {"nom": "Plateau Multisports", "lat": -1.6500539, "lng": 49.557407, "commune": "Saint-Martin-le-Gréard", "tags": ["petanque"]}, {"nom": "City-stade", "lat": 2.88415, "lng": 50.38268, "commune": "Acheville", "tags": ["football", "basket", "handball"]}, {"nom": "city stade", "lat": 6.43822, "lng": 48.5982, "commune": "Vitrimont", "tags": ["football", "basket", "handball"]}, {"nom": "Terrain multisports", "lat": 6.52447, "lng": 49.0736, "commune": "Guinglange", "tags": ["petanque"]}, {"nom": "multisports", "lat": 4.50875, "lng": 45.83708, "commune": "Ancy", "tags": ["petanque"]}, {"nom": "Citystade", "lat": 4.2021, "lng": 45.58838, "commune": "L'Hôpital-le-Grand", "tags": ["tennis"]}, {"nom": "City Stade", "lat": 1.40769, "lng": 43.58044, "commune": "Toulouse", "tags": ["football"]}, {"nom": "City Stade \"grand\"", "lat": 1.40959, "lng": 43.58411, "commune": "Toulouse", "tags": ["petanque"]}, {"nom": "Terrain de handball", "lat": 5.34902, "lng": 49.37143, "commune": "Lissey", "tags": []}, {"nom": "City stade", "lat": 5.9084290266037, "lng": 45.3016453212618, "commune": "Lumbin", "tags": ["football"]}, {"nom": "Terrain de Football", "lat": 2.48911, "lng": 49.3298, "commune": "Verderonne", "tags": ["handball"]}, {"nom": "terrain multisports", "lat": -1.08906, "lng": 48.53996, "commune": "Les Loges-Marchis", "tags": ["petanque"]}, {"nom": "aire de jeux", "lat": 5.50072, "lng": 48.95833, "commune": "Bannoncourt", "tags": []}, {"nom": "city sport", "lat": 4.91809, "lng": 45.0583, "commune": "Chanos-Curson", "tags": ["basket", "handball"]}, {"nom": "City Stade", "lat": 3.18624, "lng": 45.91712, "commune": "Clerlande", "tags": ["petanque"]}, {"nom": "CITY SATDE", "lat": -1.906, "lng": 49.67862, "commune": "La Hague", "tags": ["petanque"]}, {"nom": "Terrain Multisport", "lat": 5.85394702788625, "lng": 46.0767758632758, "commune": "Éloise", "tags": ["petanque"]}, {"nom": "TERRAIN MULTISPORTS", "lat": 1.0842247367691, "lng": 43.5139072896163, "commune": "Saint-Thomas", "tags": ["tennis"]}, {"nom": "Multisports/City-stades (Multisports/City-stades)", "lat": 6.12888763376087, "lng": 44.4501134271308, "commune": "Piégut", "tags": ["football", "basket", "tennis", "handball", "volley"]}, {"nom": "city park", "lat": 2.603645, "lng": 50.518366, "commune": "Fouquereuil", "tags": ["football", "basket", "handball"]}, {"nom": "City stade", "lat": 6.438097, "lng": 48.839541, "commune": "Fresnes-en-Saulnois", "tags": ["football", "basket", "handball", "volley"]}, {"nom": "city-stade", "lat": -0.947215332435252, "lng": 47.0323651052834, "commune": "Saint-Christophe-du-Bois", "tags": ["football", "basket", "tennis", "volley"]}, {"nom": "City stade", "lat": 5.25315743518064, "lng": 45.0591067017476, "commune": "Saint-Nazaire-en-Royans", "tags": ["basket", "handball", "volley"]}, {"nom": "City-stade", "lat": 5.25653958320618, "lng": 48.0401032868758, "commune": "Poulangy", "tags": ["football"]}, {"nom": "City Stade", "lat": -0.95382571220398, "lng": 48.08666, "commune": "La Brûlatte", "tags": ["football"]}, {"nom": "City Stade", "lat": -0.519297122955322, "lng": 48.0992809804871, "commune": "La Chapelle-Rainsouin", "tags": ["football"]}, {"nom": "City Stade", "lat": -0.889, "lng": 47.885287, "commune": "Denazé", "tags": ["petanque"]}, {"nom": "City stade", "lat": 6.830607, "lng": 48.531237, "commune": "Ancerviller", "tags": ["petanque"]}, {"nom": "city-stade d'Echemiré", "lat": -0.170392320698543, "lng": 47.5495789449139, "commune": "Baugé-en-Anjou", "tags": ["petanque"]}, {"nom": "Multisports/City-stades (Multisports/City-stades)", "lat": 6.62715237635086, "lng": 44.3628238275342, "commune": "Uvernet-Fours", "tags": ["football", "basket", "handball"]}, {"nom": "Salle des sports Oxygène", "lat": 4.03433144119258, "lng": 45.9913484386995, "commune": "Villerest", "tags": ["football", "basket", "handball"]}, {"nom": "Plateau scolaire", "lat": -3.111875, "lng": 47.478703, "commune": "Quiberon", "tags": ["football", "basket", "tennis", "handball"]}, {"nom": "city", "lat": 2.488727, "lng": 49.372726, "commune": "Nointel", "tags": ["basket", "tennis", "handball"]}, {"nom": "City-Stade", "lat": -0.684692, "lng": 43.458301, "commune": "Argagnon", "tags": ["petanque"]}, {"nom": "city stade", "lat": 0.223918, "lng": 48.708225, "commune": "Nonant-le-Pin", "tags": ["football", "basket", "handball"]}, {"nom": "Terrain multidisplines", "lat": 6.19805932044983, "lng": 48.6908902757232, "commune": "Nancy", "tags": ["football", "basket", "handball"]}, {"nom": "City-Stade", "lat": -0.937689542770386, "lng": 45.0442863603818, "commune": "Brach", "tags": ["football"]}, {"nom": "City parc pole enfance", "lat": -1.84953331947327, "lng": 47.4131177182838, "commune": "Bouvron", "tags": ["football"]}, {"nom": "Gymnase", "lat": 3.13103377819061, "lng": 46.9837660868865, "commune": "Nevers", "tags": ["petanque"]}, {"nom": "Terrain de Handball et basket", "lat": 5.91785848482981, "lng": 45.5681886679338, "commune": "Chambéry", "tags": ["petanque"]}, {"nom": "Skate Park", "lat": 5.92473, "lng": 43.91613, "commune": "Oraison", "tags": ["football", "basket", "handball", "volley"]}, {"nom": "City Stade", "lat": -0.811008810997009, "lng": 47.87019780676, "commune": "Marigné-Peuton", "tags": ["football"]}, {"nom": "Plateau multisports", "lat": -0.598001182079315, "lng": 44.9569696516043, "commune": "Parempuyre", "tags": ["football"]}, {"nom": "Terrain de Basket", "lat": 2.89331836407655, "lng": 48.0609879165331, "commune": "La Selle-sur-le-Bied", "tags": ["volley"]}, {"nom": "Terrain de basket", "lat": 0.10464, "lng": 45.887, "commune": "Luxé", "tags": ["football", "basket"]}, {"nom": "TERRAIN MULTISPORTS", "lat": 0.0343072414125345, "lng": 48.844265565283, "commune": "Trun", "tags": ["football", "basket", "handball"]}, {"nom": "terrain de basket 3x3", "lat": 6.179087, "lng": 48.661643, "commune": "Vandœuvre-lès-Nancy", "tags": ["football", "basket", "handball"]}, {"nom": "Basket 3x3", "lat": 6.200412, "lng": 49.299449, "commune": "Guénange", "tags": ["football", "basket", "handball", "volley"]}, {"nom": "terrain de basket", "lat": 7.03482538461685, "lng": 49.0644824036452, "commune": "Hambach", "tags": ["football", "basket", "handball", "volley"]}, {"nom": "Terrain de basket-ball", "lat": -1.201816, "lng": 46.166299, "commune": "La Rochelle", "tags": ["football"]}, {"nom": "Terrain de basket-ball", "lat": -1.172993, "lng": 46.158911, "commune": "La Rochelle", "tags": ["football"]}, {"nom": "Terrain de Basket-Ball Loisir Bourbaki", "lat": 1.43021613094288, "lng": 43.623799258403, "commune": "Toulouse", "tags": ["football"]}, {"nom": "City Stade", "lat": 0.959265232086182, "lng": 43.0958159273115, "commune": "Salies-du-Salat", "tags": ["football"]}, {"nom": "Terrain de Basket-Ball 3x3 Lac de la Reynerie", "lat": 1.39797538518906, "lng": 43.5709080829486, "commune": "Toulouse", "tags": ["football"]}, {"nom": "Panier de Basket-Ball", "lat": 1.42377869912447, "lng": 43.5846125353367, "commune": "Toulouse", "tags": ["football"]}, {"nom": "Terrain de basket-ball 3v3", "lat": 1.38047761440803, "lng": 43.6098102597357, "commune": "Toulouse", "tags": ["football"]}, {"nom": "CITY STADE", "lat": 3.51446276530623, "lng": 43.6181570122244, "commune": "Pouzols", "tags": ["football"]}, {"nom": "Basket 3x3", "lat": 1.888918, "lng": 47.921282, "commune": "Orléans", "tags": ["football", "handball", "volley"]}, {"nom": "terrain de basket-ball", "lat": -0.448129514137872, "lng": 47.1566129748965, "commune": "Lys-Haut-Layon", "tags": ["petanque"]}, {"nom": "Terrain de basket", "lat": -2.139542, "lng": 47.760535, "commune": "La Gacilly", "tags": ["petanque"]}, {"nom": "Terrain de basket  de l'école", "lat": -0.19138, "lng": 43.4767, "commune": "Lalongue", "tags": ["petanque"]}, {"nom": "terrain de basket", "lat": 4.88764240915992, "lng": 45.7440586578239, "commune": "Lyon 3e Arrondissement", "tags": ["petanque"]}, {"nom": "Gymnase Victor Lagrange", "lat": 4.83976565467643, "lng": 45.7442418526879, "commune": "Lyon 7e Arrondissement", "tags": ["petanque"]}, {"nom": "panneau de basket", "lat": 4.82525119517237, "lng": 45.7582555311383, "commune": "Lyon 5e Arrondissement", "tags": ["petanque"]}, {"nom": "terrain de basket", "lat": 4.82378567248415, "lng": 45.7200472030546, "commune": "Lyon 7e Arrondissement", "tags": ["petanque"]}, {"nom": "AIRE DE CHEDDE", "lat": 6.72239899635315, "lng": 45.9243296990044, "commune": "Passy", "tags": ["petanque"]}, {"nom": "terrain de basket 3x3", "lat": 5.89817033914109, "lng": 48.6880332706546, "commune": "Toul", "tags": []}, {"nom": "Salle multisports", "lat": -2.450951, "lng": 48.136152, "commune": "Ménéac", "tags": []}, {"nom": "Terrain de basket des granges", "lat": 1.50452, "lng": 43.664951, "commune": "Saint-Jean", "tags": ["tennis"]}, {"nom": "Terrain de basket loisir du Barry", "lat": 1.40253587989993, "lng": 43.6017928870746, "commune": "Toulouse", "tags": ["tennis"]}, {"nom": "Plateau sportif", "lat": 7.39715, "lng": 47.71057, "commune": "Eschentzwiller", "tags": ["petanque"]}, {"nom": "Terrain multisports", "lat": 1.36711925268173, "lng": 47.2616590730174, "commune": "Saint-Aignan", "tags": ["football", "basket", "handball"]}, {"nom": "City stade", "lat": -0.26174536, "lng": 44.28847, "commune": "Captieux", "tags": ["football"]}, {"nom": "Plateau EPS", "lat": 1.54086, "lng": 47.31156, "commune": "Billy", "tags": ["football"]}, {"nom": "Gymnase C", "lat": 7.26527778, "lng": 43.7175, "commune": "Nice", "tags": ["football", "basket", "handball"]}, {"nom": "Microsite", "lat": 7.12611111, "lng": 43.58861111, "commune": "Antibes", "tags": ["football", "basket", "handball"]}, {"nom": "Plateau d'EPS", "lat": 7.41865, "lng": 48.11917, "commune": "Porte du Ried", "tags": ["petanque"]}, {"nom": "Plateau omnisports", "lat": 7.5321, "lng": 47.56741, "commune": "Hégenheim", "tags": ["petanque"]}, {"nom": "Plateau d'EPS", "lat": 7.56309, "lng": 47.6073, "commune": "Village-Neuf", "tags": ["petanque"]}, {"nom": "City stade", "lat": -1.01303, "lng": 46.1574, "commune": "Montroy", "tags": ["football"]}, {"nom": "terrain multisports", "lat": -0.55931, "lng": 47.61397, "commune": "Écuillé", "tags": ["petanque"]}, {"nom": "Aire multisports", "lat": 1.29606, "lng": 47.47749, "commune": "Monthou-sur-Bièvre", "tags": ["tennis"]}, {"nom": "City stade", "lat": 1.42936, "lng": 47.471125, "commune": "Vendôme", "tags": ["tennis"]}, {"nom": "CITY STADE", "lat": -1.26169, "lng": 45.91279, "commune": "Dolus-d'Oléron", "tags": ["football"]}, {"nom": "City Stade", "lat": -0.56108, "lng": 45.28369, "commune": "Val-de-Livenne", "tags": ["football"]}, {"nom": "Terrain multisports", "lat": -1.133505, "lng": 44.771879, "commune": "Arès", "tags": ["football"]}, {"nom": "Buts Multisports", "lat": 6.16184, "lng": 44.33811, "commune": "Bayons", "tags": ["football", "basket", "handball", "volley"]}, {"nom": "Plateau multisport", "lat": 5.72958, "lng": 43.98605, "commune": "Limans", "tags": ["football", "basket", "tennis", "handball", "volley"]}, {"nom": "City Stade", "lat": 4.59356725215912, "lng": 44.7261972837263, "commune": "Privas", "tags": ["football", "basket", "handball"]}, {"nom": "Espace multisports", "lat": 1.43842, "lng": 47.39883, "commune": "Sassay", "tags": ["football", "basket", "handball"]}, {"nom": "terrain multisport", "lat": -0.524616391676636, "lng": 47.3634163435974, "commune": "Soulaines-sur-Aubance", "tags": ["basket", "handball"]}, {"nom": "City stade", "lat": -0.194661319255829, "lng": 44.7599707169882, "commune": "Romagne", "tags": ["football"]}, {"nom": "City stade", "lat": 1.03068, "lng": 46.96873, "commune": "Saint-Flovier", "tags": ["football"]}, {"nom": "City-Stade", "lat": 2.65611111111111, "lng": 47.8702778, "commune": "Varennes-Changy", "tags": ["football"]}, {"nom": "Terrain multisports", "lat": -0.55386, "lng": 48.66442, "commune": "Banvou", "tags": ["handball"]}, {"nom": "City Stade", "lat": -0.364149130955411, "lng": 48.6978911240112, "commune": "Briouze", "tags": ["handball"]}, {"nom": "City-Stade", "lat": -0.628824517443718, "lng": 48.7097564030591, "commune": "La Chapelle-Biche", "tags": ["handball"]}, {"nom": "ESPACE LUDOSPORT SANCY", "lat": 6.20083, "lng": 48.6653, "commune": "Jarville-la-Malgrange", "tags": ["petanque"]}, {"nom": "CITY STADE DU BOIS DES AMOURS", "lat": 2.804511, "lng": 49.135451, "commune": "Nanteuil-le-Haudouin", "tags": ["petanque"]}, {"nom": "City stade", "lat": 0.119945, "lng": 43.103252, "commune": "Trébons", "tags": ["petanque"]}, {"nom": "Citystade", "lat": 0.148581181537706, "lng": 47.9771319790673, "commune": "Allonnes", "tags": ["petanque"]}, {"nom": "City Stade", "lat": -0.6424221, "lng": 45.016607, "commune": "Val de Virvée", "tags": ["tennis"]}, {"nom": "City-Stade", "lat": 0.462293399577902, "lng": 49.744756183245, "commune": "Colleville", "tags": []}, {"nom": "City stade", "lat": 0.36821878338742, "lng": 49.7490613795571, "commune": "Fécamp", "tags": []}, {"nom": "City-stade", "lat": 1.16501, "lng": 49.56412, "commune": "Fontaine-le-Bourg", "tags": []}, {"nom": "City stade des Côtes Blanches", "lat": 0.224194251049994, "lng": 49.5001360214838, "commune": "Gonfreville-l'Orcher", "tags": []}, {"nom": "City Stade", "lat": 0.494102888524139, "lng": 49.5620555826281, "commune": "Gruchet-le-Valasse", "tags": []}, {"nom": "City Stade", "lat": 0.34702889588516, "lng": 49.696076050368, "commune": "Maniquerville", "tags": []}, {"nom": "Terrain de basket", "lat": 0.202857345539087, "lng": 49.5526647715451, "commune": "Montivilliers", "tags": []}, {"nom": "City-stade", "lat": 0.117854922682454, "lng": 49.5574916751502, "commune": "Octeville-sur-Mer", "tags": []}, {"nom": "City Stade", "lat": 0.49950282298596, "lng": 49.6184051110686, "commune": "Rouville", "tags": []}, {"nom": "City Stade", "lat": 0.356420024072577, "lng": 49.7389880816263, "commune": "Saint-Léonard", "tags": []}, {"nom": "City-stade", "lat": 0.464979, "lng": 49.653191, "commune": "Saint-Maclou-la-Brière", "tags": []}, {"nom": "Plateau EPS", "lat": 0.511336653689796, "lng": 49.7139598387548, "commune": "Thiétreville", "tags": []}, {"nom": "City stade", "lat": -2.472432, "lng": 48.013059, "commune": "Saint-Malo-des-Trois-Fontaines", "tags": ["football", "basket", "tennis", "handball"]}, {"nom": "Terrain de Handball", "lat": 6.11556, "lng": 48.6578, "commune": "Villers-lès-Nancy", "tags": []}, {"nom": "Terrain de sport", "lat": 5.82787, "lng": 47.16273, "commune": "Roset-Fluans", "tags": ["basket", "handball"]}, {"nom": "Terrain Multisports", "lat": 6.54134, "lng": 48.52977, "commune": "Fraimbois", "tags": ["petanque"]}, {"nom": "Espace multisport ados d'ALET-LES-BAINS", "lat": 2.25732, "lng": 42.99534, "commune": "Alet-les-Bains", "tags": ["football", "basket", "tennis", "handball", "volley"]}, {"nom": "Plateau EPS / City Stade", "lat": 5.14235, "lng": 48.09989, "commune": "Chaumont", "tags": ["petanque"]}, {"nom": "Terrain de Basket", "lat": -3.301882, "lng": 48.237571, "commune": "Rostrenen", "tags": ["basket"]}, {"nom": "Citystade", "lat": -2.73943, "lng": 47.69034, "commune": "Saint-Avé", "tags": ["football", "basket", "tennis", "handball"]}, {"nom": "Terrain de basketball", "lat": 5.63031, "lng": 48.58876, "commune": "Montigny-lès-Vaucouleurs", "tags": ["petanque"]}, {"nom": "Petit city-stade de la cité", "lat": 6.88382, "lng": 49.1202, "commune": "Théding", "tags": ["petanque"]}, {"nom": "City Stade", "lat": 2.95014, "lng": 49.51724, "commune": "Pimprez", "tags": ["petanque"]}, {"nom": "PLATEAU EPS", "lat": 1.96235, "lng": 42.48466, "commune": "Angoustrine-Villeneuve-des-Escaldes", "tags": ["petanque"]}, {"nom": "Citystade", "lat": 0.13743, "lng": 48.22955, "commune": "Beaumont-sur-Sarthe", "tags": ["petanque"]}, {"nom": "City-Stade", "lat": 0.97861, "lng": 49.51095, "commune": "Roumare", "tags": []}, {"nom": "Plateau EPS", "lat": 0.567212, "lng": 49.600156, "commune": "Bolleville", "tags": []}, {"nom": "PLATEAU SPORTIF", "lat": 5.66721, "lng": 47.01986, "commune": "Santans", "tags": ["football"]}, {"nom": "TERRAIN MULTISPORTS  LE FAIR-PLAY", "lat": 6.20973, "lng": 48.671, "commune": "Jarville-la-Malgrange", "tags": ["football"]}, {"nom": "Terrain de jeux", "lat": 6.04798, "lng": 48.54921, "commune": "Thélod", "tags": ["football"]}, {"nom": "City stade Cerillan", "lat": -0.761243, "lng": 44.898444, "commune": "Saint-Médard-en-Jalles", "tags": ["football"]}, {"nom": "Aire des genêts", "lat": 6.02477, "lng": 48.97768, "commune": "Pagny-sur-Moselle", "tags": []}, {"nom": "Terrain multisports", "lat": 1.069517, "lng": 49.326021, "commune": "Tourville-la-Rivière", "tags": []}, {"nom": "Terrain multisports", "lat": 1.5434, "lng": 47.71354, "commune": "Courbouzon", "tags": ["football"]}, {"nom": "Plateau EPS", "lat": 4.52823, "lng": 45.48131, "commune": "Saint-Chamond", "tags": ["football", "basket", "handball"]}, {"nom": "Plateau EPS", "lat": -0.50553, "lng": 44.81772, "commune": "Bouliac", "tags": ["football"]}, {"nom": "Terrain de jeux multisport", "lat": 7.53771, "lng": 48.16658, "commune": "Marckolsheim", "tags": ["petanque"]}, {"nom": "Multisports", "lat": 8.04727, "lng": 48.90266, "commune": "Siegen", "tags": ["petanque"]}, {"nom": "City stade", "lat": 5.16236, "lng": 46.55532, "commune": "Montpont-en-Bresse", "tags": ["petanque"]}, {"nom": "City stade", "lat": 6.486962, "lng": 48.598014, "commune": "Lunéville", "tags": []}, {"nom": "City stade", "lat": 5.76228, "lng": 49.1678, "commune": "Olley", "tags": ["football", "basket", "handball"]}, {"nom": "terrain de jeux", "lat": 4.59702, "lng": 46.47062, "commune": "La Vineuse sur Fregande", "tags": ["petanque"]}, {"nom": "Terrain de Basket", "lat": 2.85218, "lng": 49.12088, "commune": "Chèvreville", "tags": ["petanque"]}, {"nom": "Plateau sportif", "lat": 7.36166, "lng": 47.75753, "commune": "Mulhouse", "tags": ["petanque"]}, {"nom": "Equipement de proximité 2", "lat": 7.33695, "lng": 47.83128, "commune": "Ruelisheim", "tags": ["petanque"]}, {"nom": "Multi stade", "lat": 0.36467581987381, "lng": 48.3519750252503, "commune": "Mamers", "tags": ["petanque"]}, {"nom": "Microsite Saint Pancrace", "lat": 7.23694444, "lng": 43.73944444, "commune": "Nice", "tags": ["football", "basket", "handball"]}, {"nom": "Terrain de proximité \"Bon Voyage\"", "lat": 7.28694444, "lng": 43.72583333, "commune": "Nice", "tags": ["football", "basket", "handball"]}, {"nom": "Terrain de proximité \"Vallon des Fleurs\"", "lat": 7.27166667, "lng": 43.73166667, "commune": "Nice", "tags": ["football", "basket", "handball"]}, {"nom": "Plateau EPS de Villagrains", "lat": -0.59342, "lng": 44.57136, "commune": "Cabanac-et-Villagrains", "tags": ["football"]}, {"nom": "AGORESPACE DU PASSAGE DU PALAIS", "lat": 6.58734, "lng": 46.39949, "commune": "Évian-les-Bains", "tags": []}, {"nom": "PLATEAU EPS", "lat": 4.93202, "lng": 49.69867, "commune": "Sedan", "tags": ["tennis"]}, {"nom": "Terrain omnisport", "lat": 1.72363311052322, "lng": 49.8330947757859, "commune": "Vieux-Rouen-sur-Bresle", "tags": []}, {"nom": "City Park", "lat": 1.65532, "lng": 47.403154, "commune": "Pray", "tags": ["football", "basket", "handball"]}, {"nom": "City Park", "lat": 1.19340866804123, "lng": 47.7537952069848, "commune": "Selommes", "tags": ["football", "basket", "handball"]}, {"nom": "Terrain Multisports", "lat": 6.55611, "lng": 48.6701, "commune": "Hénaménil", "tags": ["petanque"]}, {"nom": "City stade", "lat": 2.882555, "lng": 49.445255, "commune": "Choisy-au-Bac", "tags": ["basket", "handball"]}, {"nom": "AGORESPACE", "lat": 2.481363, "lng": 42.736262, "commune": "Pézilla-de-Conflent", "tags": ["petanque"]}, {"nom": "Mini stade", "lat": 2.98702, "lng": 42.89671, "commune": "Fitou", "tags": ["tennis"]}, {"nom": "Plateau EPS", "lat": 0.730132, "lng": 49.649652, "commune": "Les Hauts-de-Caux", "tags": []}, {"nom": "TERRAIN DE HB OU BB", "lat": 4.83973, "lng": 48.41172, "commune": "Sommevoire", "tags": ["football"]}, {"nom": "Plateau sportif", "lat": 1.14049, "lng": 49.30336, "commune": "Pont-de-l'Arche", "tags": ["football"]}, {"nom": "CITY STADE", "lat": -0.26877, "lng": 44.41034, "commune": "Marimbault", "tags": ["football"]}, {"nom": "PLATEAU EPS", "lat": -0.13337, "lng": 45.01647, "commune": "Abzac", "tags": ["football"]}, {"nom": "TERRAIN MULTISPORTS", "lat": 6.29404, "lng": 48.7289, "commune": "Laneuvelotte", "tags": ["petanque"]}, {"nom": "Plateau EPS", "lat": 0.33062, "lng": 48.02227, "commune": "Champagné", "tags": ["petanque"]}, {"nom": "Plateau multisport de proximité", "lat": 0.20284, "lng": 47.97997, "commune": "Le Mans", "tags": ["petanque"]}, {"nom": "Espace hand/basket (place Alfred Cramilly)", "lat": 1.13891, "lng": 49.49776, "commune": "Isneauville", "tags": []}, {"nom": "Plateau EPS", "lat": 0.88073, "lng": 49.40215, "commune": "Yville-sur-Seine", "tags": []}, {"nom": "City Stade", "lat": -0.52997, "lng": 44.75135, "commune": "Cadaujac", "tags": ["football"]}, {"nom": "TERRAIN MIXTE", "lat": 5.43303, "lng": 47.86056, "commune": "Lecey", "tags": ["petanque"]}, {"nom": "Terrain de Boules", "lat": 3.07832, "lng": 49.58878, "commune": "Babœuf", "tags": ["basket", "handball"]}, {"nom": "Terrain de basket", "lat": 5.81386, "lng": 48.9202, "commune": "Essey-et-Maizerais", "tags": ["football"]}, {"nom": "Structure Agorespace", "lat": 1.32828, "lng": 47.29406, "commune": "Mareuil-sur-Cher", "tags": ["football", "basket", "handball"]}, {"nom": "SKATE PARK", "lat": 6.09978, "lng": 46.09992, "commune": "Beaumont", "tags": []}, {"nom": "City-Stade d'Alette", "lat": 1.82691269183925, "lng": 50.5180513675352, "commune": "Alette", "tags": ["football", "basket", "handball"]}, {"nom": "City Stade", "lat": -3.35167765617371, "lng": 48.7413634809166, "commune": "Lanmérin", "tags": ["football", "basket", "handball"]}, {"nom": "terrain omnisport de Villars Colmars", "lat": 6.61125, "lng": 44.16904, "commune": "Villars-Colmars", "tags": ["football", "basket", "handball"]}, {"nom": "TERRAIN VOLLEY BALL", "lat": 4.64052, "lng": 49.65047, "commune": "Poix-Terron", "tags": ["football", "basket", "handball"]}, {"nom": "Aire de loisirs et sportive", "lat": 3.35306072687705, "lng": 49.3993406323187, "commune": "Crouy", "tags": ["football", "basket", "tennis", "volley"]}, {"nom": "Terrain Jeux", "lat": 6.32439, "lng": 48.46454, "commune": "Virecourt", "tags": ["football", "basket", "handball"]}, {"nom": "Terrain de basket", "lat": 1.6129, "lng": 43.11986, "commune": "Pamiers", "tags": ["football", "basket", "tennis", "handball"]}, {"nom": "Terrain de basket", "lat": -0.609620267417481, "lng": 47.6217038710995, "commune": "Sceaux-d'Anjou", "tags": ["basket", "tennis", "handball"]}, {"nom": "PLATEFORME DE L'ESPACE DES FETES", "lat": 2.805911, "lng": 49.13885, "commune": "Nanteuil-le-Haudouin", "tags": ["basket", "tennis", "handball"]}, {"nom": "Terrain basket le clos", "lat": 3.512, "lng": 47.10284, "commune": "Saint-Saulge", "tags": ["football", "basket", "tennis", "handball", "volley"]}, {"nom": "Panneau de basket", "lat": -0.86607, "lng": 46.06933, "commune": "Landrais", "tags": ["football"]}, {"nom": "Terrain de basket ball", "lat": 5.07046, "lng": 47.38072, "commune": "Bellefond", "tags": ["football"]}, {"nom": "TERRAIN DE BASKETBALL", "lat": 5.24297, "lng": 48.41933, "commune": "Noncourt-sur-le-Rongeant", "tags": ["football"]}, {"nom": "Aire de jeux", "lat": 6.45434, "lng": 48.6183, "commune": "Deuxville", "tags": ["football"]}, {"nom": "PLATEAU EPS", "lat": -0.32231, "lng": 44.64219, "commune": "Béguey", "tags": ["football"]}, {"nom": "MINI TERRAIN DE BASKET", "lat": 0.47305, "lng": 44.37544, "commune": "Granges-sur-Lot", "tags": ["petanque"]}, {"nom": "TERRAIN DE BASKET-BALL", "lat": 5.51247, "lng": 49.48389, "commune": "Charency-Vezin", "tags": ["petanque"]}, {"nom": "Terrain de basket-ball", "lat": 7.37465, "lng": 48.72449, "commune": "Otterswiller", "tags": ["petanque"]}, {"nom": "Plateau sportif", "lat": 7.297608, "lng": 48.13403, "commune": "Kaysersberg Vignoble", "tags": ["petanque"]}, {"nom": "Plateau d'EPS", "lat": 7.3496, "lng": 47.89536, "commune": "Réguisheim", "tags": ["petanque"]}, {"nom": "Equipement de proximité 1", "lat": 7.35442, "lng": 47.82817, "commune": "Ruelisheim", "tags": ["petanque"]}, {"nom": "Terrain de basket-ball", "lat": 7.03097, "lng": 47.8764, "commune": "Saint-Amarin", "tags": ["petanque"]}, {"nom": "Terrain de basket", "lat": 7.28443, "lng": 48.12508, "commune": "Ammerschwihr", "tags": ["petanque"]}, {"nom": "Plateau d'EPS", "lat": 7.23161, "lng": 47.9377, "commune": "Orschwihr", "tags": ["petanque"]}, {"nom": "Terrain de basket-ball", "lat": 7.3117, "lng": 47.87733, "commune": "Ungersheim", "tags": ["petanque"]}, {"nom": "Terrain de basket loisir", "lat": 0.23612, "lng": 48.17367, "commune": "Ballon-Saint Mars", "tags": ["petanque"]}, {"nom": "Terrain de basket", "lat": 0.30299, "lng": 48.46467, "commune": "Villeneuve-en-Perseigne", "tags": ["petanque"]}, {"nom": "Terrain de basket", "lat": 0.149863064289093, "lng": 47.9226118303467, "commune": "Spay", "tags": ["petanque"]}, {"nom": "ESPACE MULTISPORTS", "lat": 1.5292, "lng": 47.40689, "commune": "Soings-en-Sologne", "tags": ["tennis"]}, {"nom": "Plateau EPS", "lat": 0.305058, "lng": 49.678388, "commune": "Fongueusemare", "tags": []}, {"nom": "Plateau EPS", "lat": 0.803273, "lng": 49.874457, "commune": "Veules-les-Roses", "tags": []}, {"nom": "Plateau multisports", "lat": 1.34598738159327, "lng": 47.9405232576719, "commune": "Ouzouer-le-Doyen", "tags": ["football", "basket", "handball"]}, {"nom": "Espace multisports", "lat": 1.265431, "lng": 47.602934, "commune": "Saint-Sulpice-de-Pommeray", "tags": ["football", "basket", "handball"]}, {"nom": "Espace multisports", "lat": 1.2627259592589, "lng": 47.6420849513968, "commune": "Saint-Bohaire", "tags": ["tennis"]}, {"nom": "Espace multisports", "lat": 1.33586, "lng": 47.50452, "commune": "Seur", "tags": ["football", "basket", "handball"]}, {"nom": "Terrains de tennis", "lat": 1.680103, "lng": 47.502955, "commune": "Vernou-en-Sologne", "tags": ["tennis"]}, {"nom": "Terrain de jeux collectifs", "lat": 6.87677, "lng": 49.12042, "commune": "Farébersviller", "tags": ["petanque"]}, {"nom": "STADE MUNICIPAL", "lat": 2.7185, "lng": 49.36424, "commune": "Longueil-Sainte-Marie", "tags": ["petanque"]}, {"nom": "City Stade", "lat": -1.03155, "lng": 46.23227, "commune": "Saint-Ouen-d'Aunis", "tags": ["football"]}, {"nom": "AGORESPACE", "lat": 6.145934, "lng": 45.912605, "commune": "Annecy", "tags": ["petanque"]}, {"nom": "PLATEAU SPORTIF", "lat": 7.23805556, "lng": 43.82194444, "commune": "Saint-Blaise", "tags": ["football", "basket", "handball"]}, {"nom": "City stade du Loretto", "lat": 8.7325, "lng": 41.93075, "commune": "Ajaccio", "tags": ["football", "basket", "handball"]}, {"nom": "Citystade", "lat": 0.74528, "lng": 47.85659, "commune": "La Chapelle-Huon", "tags": ["petanque"]}, {"nom": "Plateau multisports", "lat": 1.22822285596158, "lng": 49.7115713328139, "commune": "Bellencombre", "tags": []}, {"nom": "MICROSITE", "lat": 7.25277778, "lng": 44.07138885, "commune": "Saint-Martin-Vésubie", "tags": ["football", "basket", "handball"]}, {"nom": "Petit terrain", "lat": 2.16645, "lng": 49.21681, "commune": "Esches", "tags": ["petanque"]}, {"nom": "Terrain de Basket", "lat": -0.87238, "lng": 46.27145, "commune": "Saint-Jean-de-Liversay", "tags": ["football"]}, {"nom": "TERRAIN DE SPORT", "lat": 1.84578, "lng": 45.20579, "commune": "Lagarde-Marc-la-Tour", "tags": ["football"]}, {"nom": "terrain multisports", "lat": 2.05058, "lng": 49.20738, "commune": "Hénonville", "tags": ["basket", "handball", "volley", "skate"]}, {"nom": "PLATEAU J. CALLENS", "lat": 2.979174, "lng": 50.366114, "commune": "Quiéry-la-Motte", "tags": ["petanque"]}, {"nom": "GYMNASE", "lat": 4.247, "lng": 49.68838, "commune": "Rocquigny", "tags": ["football", "basket", "handball"]}, {"nom": "Salle Florent-Evrard", "lat": 2.892319, "lng": 50.505197, "commune": "Bauvin", "tags": ["petanque"]}, {"nom": "Terrain de Basket des Arts", "lat": 3.2842, "lng": 49.85797, "commune": "Saint-Quentin", "tags": ["football", "basket"]}, {"nom": "Terrain de basket", "lat": 5.762622, "lng": 49.532374, "commune": "Mont-Saint-Martin", "tags": ["football", "basket", "handball"]}, {"nom": "Panneau de basket", "lat": 1.16533, "lng": 49.01027, "commune": "Évreux", "tags": ["basket", "tennis"]}, {"nom": "Panneau de basket", "lat": -0.731331462, "lng": 46.13974969, "commune": "Saint-Georges-du-Bois", "tags": ["football"]}, {"nom": "Terrain gris de basket ball", "lat": 5.793392, "lng": 49.547553, "commune": "Mont-Saint-Martin", "tags": ["football"]}, {"nom": "EQUIPEMENT DE PROXIMITE", "lat": -0.93764, "lng": 45.30173, "commune": "Lesparre-Médoc", "tags": ["football"]}, {"nom": "Conviscourt Coincourt", "lat": 2.30699, "lng": 49.32173, "commune": "Mouy", "tags": ["petanque"]}, {"nom": "City stade", "lat": -0.376664, "lng": 44.966989, "commune": "Cadillac-en-Fronsadais", "tags": ["football"]}, {"nom": "Terrain en schiste", "lat": 6.26568, "lng": 49.12096, "commune": "Ogy-Montoy-Flanville", "tags": ["petanque"]}, {"nom": "Plateau sportif", "lat": 6.1584, "lng": 49.03329, "commune": "Coin-lès-Cuvry", "tags": ["football", "basket", "tennis", "handball", "volley"]}, {"nom": "City-stade", "lat": 2.70319, "lng": 50.52973, "commune": "Beuvry", "tags": ["football", "basket", "handball"]}, {"nom": "Plateau sportif", "lat": -0.567484, "lng": 44.514235, "commune": "Louchats", "tags": ["football"]}, {"nom": "Plateau sportif Saint Exupéry", "lat": -0.31579, "lng": 47.83701, "commune": "Sablé-sur-Sarthe", "tags": ["petanque"]}, {"nom": "TERRAIN DE BASKET", "lat": 6.60278, "lng": 46.39361, "commune": "Neuvecelle", "tags": ["petanque"]}, {"nom": "City stade", "lat": 2.70564, "lng": 47.18688, "commune": "Azy", "tags": ["football"]}, {"nom": "City stade", "lat": -0.669001042897435, "lng": 49.2655281722682, "commune": "Saint-Martin-des-Entrées", "tags": ["football", "basket"]}, {"nom": "PLATEAU EPS", "lat": -1.34571169317042, "lng": 48.6788260862272, "commune": "Avranches", "tags": ["basket", "handball"]}, {"nom": "city-stade", "lat": 6.0192347, "lng": 49.4385249, "commune": "Ottange", "tags": ["petanque"]}, {"nom": "city stade", "lat": -0.81691950581444, "lng": 49.3077936171721, "commune": "Mosles", "tags": ["football", "basket"]}, {"nom": "City-stade", "lat": 5.76353, "lng": 49.4935, "commune": "Réhon", "tags": ["football", "basket", "handball"]}, {"nom": "Plateau EPS", "lat": 3.81099, "lng": 48.58655, "commune": "Anglure", "tags": ["petanque"]}, {"nom": "PLATEAU EPS", "lat": -1.34782, "lng": 48.68007, "commune": "Avranches", "tags": ["petanque"]}, {"nom": "PLATEAU EPS", "lat": -1.7979, "lng": 49.57964, "commune": "Héauville", "tags": ["petanque"]}, {"nom": "City-stade Kennedy", "lat": 6.16471, "lng": 49.206124, "commune": "Maizières-lès-Metz", "tags": ["petanque"]}, {"nom": "Citystade", "lat": -0.05235, "lng": 47.93844, "commune": "Maigné", "tags": ["petanque"]}, {"nom": "City Stade", "lat": 5.91226259780464, "lng": 45.8753103034906, "commune": "Rumilly", "tags": ["petanque"]}, {"nom": "Citystade de l'espace d'animation", "lat": 6.50317668914795, "lng": 46.0880211204138, "commune": "Marignier", "tags": []}, {"nom": "Plaine de Jeux", "lat": 3.45243, "lng": 43.67607, "commune": "Saint-Guiraud", "tags": ["football"]}, {"nom": "PLATEAU SPORTIF", "lat": -1.489357, "lng": 49.063871, "commune": "Gratot", "tags": ["petanque"]}, {"nom": "City-Stade", "lat": 1.11911604691443, "lng": 43.2572656149772, "commune": "Lavelanet-de-Comminges", "tags": ["tennis"]}, {"nom": "terrain multisports", "lat": 5.03143, "lng": 45.69692, "commune": "Saint-Bonnet-de-Mure", "tags": ["petanque"]}, {"nom": "Plateau EPS", "lat": 4.65994, "lng": 48.70773, "commune": "Vauclerc", "tags": ["petanque"]}, {"nom": "Stade multisports", "lat": 3.04903864860535, "lng": 46.5840140709127, "commune": "Bourbon-l'Archambault", "tags": ["football", "basket"]}, {"nom": "PLATEAU SPORTIF", "lat": -1.77731, "lng": 49.63747, "commune": "La Hague", "tags": ["petanque"]}, {"nom": "PLATEAU EPS", "lat": -1.82101, "lng": 49.61284, "commune": "La Hague", "tags": ["petanque"]}, {"nom": "PLATEAU EPS", "lat": -0.96913, "lng": 49.14833, "commune": "Saint-Georges-d'Elle", "tags": ["petanque"]}, {"nom": "PLATEAU EPS", "lat": -1.78525, "lng": 49.55436, "commune": "Helleville", "tags": ["petanque"]}, {"nom": "PLATEAU EPS", "lat": -1.7808, "lng": 49.48561, "commune": "Saint-Germain-le-Gaillard", "tags": ["petanque"]}, {"nom": "Terrain extérieur", "lat": -0.642189011032315, "lng": 49.242834627612, "commune": "Nonant", "tags": ["football", "basket"]}, {"nom": "Terrain multisports", "lat": -0.78094, "lng": 49.29495, "commune": "Tour-en-Bessin", "tags": ["football", "basket"]}, {"nom": "Terrain des jeunes de Bize", "lat": 2.86825, "lng": 43.31527, "commune": "Bize-Minervois", "tags": ["football", "basket", "handball", "volley"]}, {"nom": "Terrain multisports", "lat": 0.82565, "lng": 48.31465, "commune": "Nogent-le-Rotrou", "tags": ["football"]}, {"nom": "Terrain de basket-ball", "lat": -0.32118, "lng": 49.04423, "commune": "Bretteville-sur-Laize", "tags": ["basket", "handball", "volley"]}, {"nom": "Le manège", "lat": 2.65314, "lng": 43.24984, "commune": "La Redorte", "tags": ["football", "basket", "handball", "volley"]}, {"nom": "Plateau mixte", "lat": 2.78482, "lng": 46.93157, "commune": "Ourouer-les-Bourdelins", "tags": ["football"]}, {"nom": "plateau EPS", "lat": 6.81805, "lng": 47.32112, "commune": "Saint-Hippolyte", "tags": ["football"]}, {"nom": "PLATEAU EPS", "lat": -1.74802, "lng": 49.60979, "commune": "La Hague", "tags": ["petanque"]}, {"nom": "PLATEAU SPORTIF", "lat": -1.91445, "lng": 49.70941, "commune": "La Hague", "tags": ["petanque"]}, {"nom": "TERRAIN MULTISPORTS", "lat": 2.38684, "lng": 50.51019, "commune": "Bailleul-lès-Pernes", "tags": ["football", "basket", "handball"]}, {"nom": "SALLE MULTISPORTS HALLE", "lat": -1.83872, "lng": 49.66663, "commune": "La Hague", "tags": ["basket", "handball"]}, {"nom": "Terrain de volley-ball", "lat": 1.5619, "lng": 49.13452, "commune": "Heubécourt-Haricourt", "tags": ["basket", "tennis", "volley"]}, {"nom": "Terrain de basket", "lat": 2.94824, "lng": 48.1252, "commune": "Rozoy-le-Vieil", "tags": ["basket", "handball", "volley"]}, {"nom": "Deux panneaux de basket", "lat": -0.27614, "lng": 49.20913, "commune": "Hérouvillette", "tags": ["football", "basket"]}, {"nom": "Terrain de Basketball", "lat": 0.0703, "lng": 48.79261, "commune": "Gouffern en Auge", "tags": ["football", "basket", "handball"]}, {"nom": "Terrain de basket ball", "lat": -0.095531344468327, "lng": 48.6710406839984, "commune": "Avoine", "tags": ["football", "basket", "handball"]}, {"nom": "Terrain de basket", "lat": 0.45717, "lng": 48.86186, "commune": "La Ferté-en-Ouche", "tags": ["football", "basket", "handball"]}, {"nom": "Terrain de basket-ball", "lat": -0.11645, "lng": 48.8339, "commune": "Nécy", "tags": ["football", "basket", "handball"]}, {"nom": "Terrain de basket", "lat": -0.0034, "lng": 48.44531, "commune": "Pacé", "tags": ["football", "basket", "handball"]}, {"nom": "Plateau de Basket", "lat": 4.0411, "lng": 43.64148, "commune": "Mudaison", "tags": ["football"]}, {"nom": "Aire de basket-ball", "lat": 6.147847, "lng": 49.117767, "commune": "Longeville-lès-Metz", "tags": ["petanque"]}, {"nom": "Terrain multisports", "lat": -1.67876, "lng": 49.5208, "commune": "Rauville-la-Bigot", "tags": ["petanque"]}, {"nom": "Rallye Drouot", "lat": 7.35724, "lng": 47.75951, "commune": "Mulhouse", "tags": ["petanque"]}, {"nom": "Terrain de basket-ball", "lat": 5.75214, "lng": 49.4911, "commune": "Réhon", "tags": []}, {"nom": "Terrain multisports", "lat": 6.3213, "lng": 48.637, "commune": "Varangéville", "tags": []}, {"nom": "Panneau de basket", "lat": 1.1316, "lng": 49.4644, "commune": "Bihorel", "tags": []}, {"nom": "Terrain de basket-ball", "lat": 1.02737, "lng": 49.27682, "commune": "Caudebec-lès-Elbeuf", "tags": []}, {"nom": "Terrain de basket-ball", "lat": 0.94397, "lng": 49.35773, "commune": "Sahurs", "tags": []}, {"nom": "Aire de basket", "lat": 0.87899, "lng": 49.51702, "commune": "Saint-Paër", "tags": []}, {"nom": "AGORESPACE", "lat": 5.90139, "lng": 45.91556, "commune": "Lornay", "tags": []}, {"nom": "Citystade", "lat": 5.15541843101574, "lng": 45.5390488445086, "commune": "Artas", "tags": ["football"]}, {"nom": "mini stade saint claude", "lat": 4.28236, "lng": 45.9781, "commune": "Amplepuis", "tags": ["petanque"]}, {"nom": "Terrain multisports", "lat": 0.09025, "lng": 43.58454, "commune": "Beaumarchés", "tags": ["tennis"]}, {"nom": "salle polyvalente", "lat": 5.36108, "lng": 45.64032, "commune": "Saint-Chef", "tags": ["football", "handball"]}, {"nom": "TERRAIN DE BASKET", "lat": 0.57523, "lng": 43.79041, "commune": "Préchac", "tags": ["tennis"]}, {"nom": "Salle des sports Marcelle Larregneste", "lat": -0.7689, "lng": 43.55039, "commune": "Bonnut", "tags": ["petanque"]}, {"nom": "TERRAIN DE BASKET", "lat": 0.648513, "lng": 44.015237, "commune": "Sempesserre", "tags": ["tennis"]}, {"nom": "SALLE POLYVALENTE", "lat": -0.25145, "lng": 44.12933, "commune": "Bourriot-Bergonce", "tags": ["football"]}, {"nom": "Terrain de basket ball", "lat": 4.9811, "lng": 47.1735, "commune": "Gilly-lès-Cîteaux", "tags": ["football", "basket", "handball"]}, {"nom": "Terrain de Basket-Ball", "lat": -4.1314, "lng": 47.9852, "commune": "Quimper", "tags": ["football", "basket", "handball"]}, {"nom": "Terrains de Basket Complexe Sportif André Beaumont", "lat": 3.31067, "lng": 43.73194, "commune": "Lodève", "tags": ["football"]}, {"nom": "Terrain de basket", "lat": 3.22179, "lng": 45.93534, "commune": "Martres-sur-Morge", "tags": ["petanque"]}, {"nom": "Plateau sportif", "lat": 7.24507, "lng": 47.91862, "commune": "Bergholtz", "tags": ["petanque"]}, {"nom": "Terrain de basket-ball", "lat": 5.9478, "lng": 49.01202, "commune": "Waville", "tags": []}, {"nom": "SALLE POLYVALENTE", "lat": -0.52141, "lng": 43.69035, "commune": "Coudures", "tags": ["football"]}, {"nom": "Salle des sports", "lat": -1.15825, "lng": 43.52278, "commune": "Sames", "tags": ["petanque"]}, {"nom": "plateau sportif", "lat": 5.01861, "lng": 46.90083, "commune": "Verdun-sur-le-Doubs", "tags": ["petanque"]}, {"nom": "Terrain multisports", "lat": 5.55161, "lng": 48.78352, "commune": "Lérouville", "tags": ["football", "basket", "handball"]}, {"nom": "Terrain Multisports", "lat": 3.517422, "lng": 50.333844, "commune": "Aulnoy-lez-Valenciennes", "tags": ["football", "basket", "tennis", "handball", "volley"]}, {"nom": "City-stade", "lat": 1.92325115203857, "lng": 50.724001874676, "commune": "Escœuilles", "tags": ["football", "basket", "handball"]}, {"nom": "citystade", "lat": 4.5406698, "lng": 45.48602167, "commune": "L'Horme", "tags": ["football", "basket", "handball"]}, {"nom": "Plateau multisports", "lat": 3.96643, "lng": 49.2708, "commune": "Champigny", "tags": ["football"]}, {"nom": "Parc multisports", "lat": -0.629830956459046, "lng": 48.3119575594997, "commune": "Mayenne", "tags": ["petanque"]}, {"nom": "PLATEAU MULTISPORTS", "lat": 3.61532, "lng": 50.14926, "commune": "Bousies", "tags": ["petanque"]}, {"nom": "AGORESPACE", "lat": 4.023884, "lng": 46.663839, "commune": "Uxeau", "tags": ["petanque"]}, {"nom": "terrain multisports", "lat": 4.58172324, "lng": 45.51240777, "commune": "Lorette", "tags": ["tennis"]}, {"nom": "Terrain d'entraînement multisports", "lat": 3.27108624391258, "lng": 44.8071164404973, "commune": "Saint-Chély-d'Apcher", "tags": ["petanque"]}, {"nom": "citystade de Sauzéa", "lat": 4.57239417, "lng": 45.50405499, "commune": "La Grand-Croix", "tags": ["football", "basket", "handball"]}, {"nom": "terrain de sports", "lat": 4.69692, "lng": 46.34745, "commune": "Milly-Lamartine", "tags": ["petanque"]}, {"nom": "Microsite proximité du Wihrel", "lat": 7.70732, "lng": 48.55548, "commune": "Ostwald", "tags": ["petanque"]}, {"nom": "Gymnase Michel Rousselet", "lat": 0.392501475289464, "lng": 49.7540365923032, "commune": "Fécamp", "tags": []}, {"nom": "Plateau Sportif Complexe Sportif Raymond Boisset", "lat": 3.50027, "lng": 43.65393, "commune": "Saint-André-de-Sangonis", "tags": ["football"]}, {"nom": "PLATEAU EPS", "lat": 2.121274, "lng": 42.52475, "commune": "La Llagonne", "tags": ["petanque"]}, {"nom": "Salle des Sports", "lat": -2.43443, "lng": 48.54157, "commune": "Hénansal", "tags": ["football", "basket", "handball"]}, {"nom": "Terrain", "lat": -1.53008, "lng": 48.95104, "commune": "Tourneville-sur-Mer", "tags": ["petanque"]}, {"nom": "Plateau d'EPS", "lat": 7.41038, "lng": 48.08274, "commune": "Horbourg-Wihr", "tags": ["petanque"]}, {"nom": "Plateau d'évolution", "lat": 7.60926, "lng": 48.64054, "commune": "Wiwersheim", "tags": ["petanque"]}, {"nom": "Plateau EPS", "lat": 5.81647, "lng": 45.22955, "commune": "Montbonnot-Saint-Martin", "tags": ["football", "handball"]}, {"nom": "Terrain de basket / Hand", "lat": 2.09719, "lng": 47.85576, "commune": "Darvoy", "tags": ["football", "handball"]}, {"nom": "Plateau omnisports", "lat": 7.59275, "lng": 48.40966, "commune": "Uttenheim", "tags": ["petanque"]}, {"nom": "Plateau d'évolution", "lat": 7.56395, "lng": 48.73285, "commune": "Hochfelden", "tags": ["petanque"]}, {"nom": "Plateau d'évolution", "lat": 7.30493, "lng": 48.34148, "commune": "Villé", "tags": ["petanque"]}, {"nom": "HALLE DES SPORTS", "lat": -1.77772, "lng": 49.59584, "commune": "La Hague", "tags": ["petanque"]}, {"nom": "Plateau sportif (tennis/basket)", "lat": 6.06759399175644, "lng": 46.8263715582749, "commune": "Cuvier", "tags": ["football"]}, {"nom": "TERRAIN DE BASKET", "lat": 5.42111, "lng": 46.22194, "commune": "Simandre-sur-Suran", "tags": ["football", "basket", "tennis", "handball", "volley"]}, {"nom": "terrain de basket/tennis", "lat": 4.232814, "lng": 46.110966, "commune": "Jarnosse", "tags": ["tennis"]}, {"nom": "Terrain de basket", "lat": 7.32204, "lng": 48.40278, "commune": "Le Hohwald", "tags": ["petanque"]}, {"nom": "Terrain de basket-ball", "lat": -0.51412, "lng": 49.2123, "commune": "Thue et Mue", "tags": ["basket", "handball", "volley"]}, {"nom": "Terrain de basket", "lat": -0.39392, "lng": 49.156625, "commune": "Louvigny", "tags": ["football", "basket"]}, {"nom": "terrain de basket-ball", "lat": 4.55370987, "lng": 45.49066636, "commune": "L'Horme", "tags": ["football", "basket", "handball"]}, {"nom": "TERRAIN DE BASKET", "lat": 2.52943, "lng": 50.48852, "commune": "Bruay-la-Buissière", "tags": ["football", "basket", "handball"]}, {"nom": "Terrain de basket ball", "lat": 4.88659, "lng": 45.07314, "commune": "Mercurol-Veaunes", "tags": ["basket", "tennis", "handball"]}, {"nom": "TERRAIN DE BASKET", "lat": 1.17723, "lng": 43.27414, "commune": "Salles-sur-Garonne", "tags": ["football"]}, {"nom": "Plateau de basket-ball", "lat": -0.6284, "lng": 44.81205, "commune": "Pessac", "tags": ["football"]}, {"nom": "Terrain multisports", "lat": 5.63968, "lng": 45.37957, "commune": "Saint-Étienne-de-Crossey", "tags": ["football"]}, {"nom": "Terrain de Basket", "lat": 5.29284, "lng": 45.44587, "commune": "Champier", "tags": ["football"]}, {"nom": "Terrain de basket-ball", "lat": 0.17305, "lng": 48.59449, "commune": "Sées", "tags": []}, {"nom": "Terrain de basket", "lat": 1.27561, "lng": 43.35791, "commune": "Noé", "tags": ["petanque"]}, {"nom": "Terrain de basket", "lat": -1.56443, "lng": 48.89732, "commune": "Bréhal", "tags": ["petanque"]}, {"nom": "Terrain de basket", "lat": 3.3381, "lng": 45.92614, "commune": "Maringues", "tags": ["petanque"]}, {"nom": "Terrain de basket-ball", "lat": 7.46622, "lng": 48.4111, "commune": "Gertwiller", "tags": ["petanque"]}, {"nom": "Terrain de basket ball", "lat": 4.91783, "lng": 45.78278, "commune": "Vaulx-en-Velin", "tags": ["petanque"]}, {"nom": "Terrain de Basket", "lat": 7.48621, "lng": 48.57413, "commune": "Soultz-les-Bains", "tags": ["petanque"]}, {"nom": "Terrains de basket ball", "lat": 4.832331, "lng": 46.767514, "commune": "Saint-Rémy", "tags": ["petanque"]}, {"nom": "terrain de basket ball exterieur", "lat": 4.84818, "lng": 45.81648, "commune": "Collonges-au-Mont-d'Or", "tags": ["petanque"]}, {"nom": "Terrain de basket", "lat": 1.38276, "lng": 47.62543, "commune": "Saint-Denis-sur-Loire", "tags": ["tennis"]}, {"nom": "terrain de basket-ball extérieur", "lat": 4.58439853, "lng": 45.50728417, "commune": "Lorette", "tags": ["tennis"]}, {"nom": "terrain de basket-ball Roger Deville", "lat": 4.06256415, "lng": 46.08696825, "commune": "Mably", "tags": ["tennis"]}, {"nom": "SALLE MULTISPORTS (\"GYMNASE\")", "lat": -0.80036, "lng": 43.71203, "commune": "Lahosse", "tags": ["tennis", "handball"]}, {"nom": "Jeu de quilles", "lat": 5.54527, "lng": 48.80107, "commune": "Pont-sur-Meuse", "tags": []}, {"nom": "Aire de multi-activités", "lat": -0.32831, "lng": 48.05131, "commune": "Blandouet-Saint Jean", "tags": ["football"]}, {"nom": "CITY STADE", "lat": 2.977434, "lng": 49.400171, "commune": "Trosly-Breuil", "tags": ["football", "basket", "handball"]}, {"nom": "city-stade", "lat": -0.3032, "lng": 47.63524, "commune": "Huillé-Lézigné", "tags": ["football", "basket", "handball", "volley"]}, {"nom": "Terrain multisports", "lat": -0.49845, "lng": 47.23801, "commune": "Bellevigne-en-Layon", "tags": ["basket", "handball"]}, {"nom": "city-stade", "lat": -0.529068986561951, "lng": 47.4529698557654, "commune": "Angers", "tags": ["petanque"]}, {"nom": "Terrain de basket-ball", "lat": 7.90575, "lng": 48.80238, "commune": "Schirrhein", "tags": ["petanque"]}, {"nom": "défense de zône", "lat": 4.79368, "lng": 45.78181, "commune": "Lyon 9e Arrondissement", "tags": ["petanque"]}, {"nom": "City stade", "lat": 4.20433, "lng": 46.07212, "commune": "Coutouvre", "tags": ["tennis"]}, {"nom": "city-stade", "lat": -1.11893, "lng": 47.23272, "commune": "Montrevault-sur-Èvre", "tags": ["football", "basket", "petanque"]}, {"nom": "Aire Multisports", "lat": 1.46156, "lng": 43.64206, "commune": "Toulouse", "tags": ["football"]}, {"nom": "Terrain multisports", "lat": -0.374945998191834, "lng": 44.5978671362676, "commune": "Illats", "tags": ["football"]}, {"nom": "Plateau sportif", "lat": -1.55995, "lng": 47.18547, "commune": "Rezé", "tags": ["football"]}, {"nom": "PLATEAU MULTISPORTS", "lat": 1.48274, "lng": 43.57615, "commune": "Toulouse", "tags": ["petanque"]}, {"nom": "city-stade", "lat": -1.08899871782563, "lng": 47.6931922058118, "commune": "Ombrée d'Anjou", "tags": ["petanque"]}, {"nom": "Aire Multisports", "lat": 1.426, "lng": 43.61341, "commune": "Toulouse", "tags": ["tennis"]}, {"nom": "city stade", "lat": 5.02144, "lng": 48.88728, "commune": "Laheycourt", "tags": ["petanque"]}, {"nom": "City-stades", "lat": -0.04178, "lng": 43.08708, "commune": "Lourdes", "tags": ["basket", "tennis", "handball", "volley"]}, {"nom": "Terrain Multisports", "lat": 6.74417, "lng": 48.5997, "commune": "Reillon", "tags": []}, {"nom": "plate-forme multi activités", "lat": -0.41034196574401, "lng": 48.6227652503203, "commune": "Les Monts d'Andaine", "tags": ["football", "basket", "handball"]}, {"nom": "City Stade", "lat": -0.394105, "lng": 45.04913, "commune": "Gauriaguet", "tags": ["football"]}, {"nom": "City Stade", "lat": -0.422813, "lng": 44.697175, "commune": "Portets", "tags": ["football"]}, {"nom": "EQUIPEMENT DE PROXIMITE", "lat": -0.34362, "lng": 44.53499, "commune": "Sauternes", "tags": ["football"]}, {"nom": "City Stade des Papillons", "lat": 1.337642, "lng": 47.573869, "commune": "Blois", "tags": ["football"]}, {"nom": "Terrain multisports", "lat": 4.62116, "lng": 48.71725, "commune": "Marolles", "tags": ["petanque"]}, {"nom": "Plateau Multisports", "lat": 2.44131, "lng": 49.48402, "commune": "Valescourt", "tags": []}, {"nom": "City-stade", "lat": 5.72497, "lng": 49.50126, "commune": "Lexy", "tags": ["football"]}, {"nom": "Plateau sportf", "lat": 7.4595, "lng": 49.10242, "commune": "Hanviller", "tags": ["petanque"]}, {"nom": "City stade", "lat": 6.483942, "lng": 48.583535, "commune": "Lunéville", "tags": []}, {"nom": "TERRAIN DE BASKET-BALL", "lat": -0.4797233, "lng": 44.932853, "commune": "Ambarès-et-Lagrave", "tags": ["tennis"]}, {"nom": "TERRAIN DE BASKET-BALL", "lat": -0.5017, "lng": 44.92477, "commune": "Ambarès-et-Lagrave", "tags": ["tennis"]}, {"nom": "Terrains de Volley-ball", "lat": 3.50658, "lng": 49.0753, "commune": "Chartèves", "tags": ["basket", "handball"]}, {"nom": "Plateau d'EPS", "lat": 5.17917, "lng": 46.62784, "commune": "Sornay", "tags": ["petanque"]}, {"nom": "Terrain omnisports", "lat": 4.7729, "lng": 45.3924, "commune": "Saint-Maurice-l'Exil", "tags": ["football"]}, {"nom": "City stade", "lat": 2.25152, "lng": 49.30172, "commune": "Cauvigny", "tags": ["petanque"]}, {"nom": "PLATEAU EPS", "lat": 2.90024, "lng": 42.56624, "commune": "Brouilla", "tags": ["petanque"]}, {"nom": "CITY-PARK", "lat": 4.85218, "lng": 44.88885, "commune": "Soyons", "tags": ["football", "basket", "handball"]}, {"nom": "City-stade", "lat": 1.32252, "lng": 43.46102, "commune": "Muret", "tags": ["football"]}, {"nom": "City-stade Jean Sohier", "lat": -2.35786, "lng": 47.29736, "commune": "La Baule-Escoublac", "tags": ["football"]}, {"nom": "Plateau d'évolution", "lat": 7.42843, "lng": 48.56985, "commune": "Flexbourg", "tags": ["petanque"]}, {"nom": "Espace sportif", "lat": 5.40105, "lng": 48.61116, "commune": "Tréveray", "tags": ["football", "basket", "handball"]}, {"nom": "City Stade", "lat": -2.026969, "lng": 48.1353865, "commune": "Iffendic", "tags": ["football"]}, {"nom": "Plateforme entraînement", "lat": 2.91144, "lng": 46.10448, "commune": "Menat", "tags": ["petanque"]}, {"nom": "Terrain multisports", "lat": 7.23566, "lng": 47.64714, "commune": "Aspach", "tags": ["petanque"]}, {"nom": "Terrain Multisports", "lat": 1.110354, "lng": 47.281607, "commune": "Épeigné-les-Bois", "tags": ["football"]}, {"nom": "city-stade", "lat": 4.28465, "lng": 46.00873, "commune": "Saint-Victor-sur-Rhins", "tags": ["football", "basket", "handball"]}, {"nom": "Terrain multisports", "lat": 5.41669964790344, "lng": 45.5831777495763, "commune": "Rochetoirin", "tags": ["football"]}, {"nom": "CITY STADE", "lat": 1.65226, "lng": 43.70451, "commune": "Montpitol", "tags": ["petanque"]}, {"nom": "city-stade", "lat": 4.77932095527649, "lng": 45.6086231380266, "commune": "Grigny", "tags": ["petanque"]}, {"nom": "terrain alix", "lat": 4.82336, "lng": 45.74418, "commune": "Lyon 2e Arrondissement", "tags": ["petanque"]}, {"nom": "CITY STADE", "lat": 1.18424, "lng": 43.51192, "commune": "Saint-Lys", "tags": ["tennis"]}, {"nom": "City Stade", "lat": 1.40013, "lng": 43.59567, "commune": "Toulouse", "tags": ["tennis"]}, {"nom": "Terrain Multisport", "lat": 6.25753, "lng": 48.4963, "commune": "Saint-Remimont", "tags": ["football"]}, {"nom": "City-stade", "lat": 5.63924, "lng": 49.50676, "commune": "Tellancourt", "tags": ["football"]}, {"nom": "Terrain multisports", "lat": 5.87953, "lng": 49.33776, "commune": "Anderny", "tags": ["petanque"]}, {"nom": "ESPACE MULTISPORTS", "lat": 3.23749, "lng": 50.70036, "commune": "Wattrelos", "tags": ["basket", "handball"]}, {"nom": "Plateau Multisport", "lat": 3.47274, "lng": 43.69431, "commune": "Saint-Saturnin-de-Lucian", "tags": ["football"]}, {"nom": "City Stade", "lat": 2.67632, "lng": 49.46425, "commune": "Hémévillers", "tags": ["basket", "tennis", "handball"]}, {"nom": "Plateau sportif", "lat": 1.10281, "lng": 47.44945, "commune": "Mosnes", "tags": ["football"]}, {"nom": "TERRAIN MULTISPORTS", "lat": 6.08194, "lng": 48.9038, "commune": "Mousson", "tags": ["football", "basket", "handball"]}, {"nom": "City-stade", "lat": 6.52914, "lng": 49.19533, "commune": "Denting", "tags": ["petanque"]}, {"nom": "Plateau sportif", "lat": 6.52287, "lng": 49.00211, "commune": "Many", "tags": ["petanque"]}, {"nom": "Terrain Multisport", "lat": 6.29628, "lng": 48.89913, "commune": "Thézey-Saint-Martin", "tags": []}, {"nom": "Plateau multisports", "lat": 7.01783, "lng": 48.84656, "commune": "Fénétrange", "tags": ["football", "basket", "tennis", "handball", "volley"]}, {"nom": "Plateau multisports", "lat": 5.78341, "lng": 43.96194, "commune": "Forcalquier", "tags": ["football", "basket", "tennis", "handball", "volley"]}, {"nom": "Terrain sportif HLM du Foulon", "lat": 1.60839, "lng": 43.10838, "commune": "Pamiers", "tags": ["basket"]}, {"nom": "Terrain de basket-ball", "lat": 0.01587, "lng": 48.70266, "commune": "Boischampré", "tags": ["football", "basket", "handball"]}, {"nom": "Terrain de football", "lat": 5.54384, "lng": 49.47222, "commune": "Villette", "tags": ["football", "basket", "handball"]}, {"nom": "City-stade", "lat": 6.111799, "lng": 49.111, "commune": "Ars-sur-Moselle", "tags": ["football", "basket", "tennis", "handball", "volley"]}, {"nom": "Plateau multisports", "lat": 6.99909, "lng": 48.76027, "commune": "Haut-Clocher", "tags": ["football", "basket", "handball", "volley"]}, {"nom": "Plateau multisports", "lat": 2.8254, "lng": 49.50591, "commune": "Marest-sur-Matz", "tags": ["basket", "tennis", "handball"]}, {"nom": "Plateau EPS", "lat": -4.32609, "lng": 48.08204, "commune": "Douarnenez", "tags": []}, {"nom": "Terrain de sports", "lat": 6.20549, "lng": 48.6414, "commune": "Fléville-devant-Nancy", "tags": ["football"]}, {"nom": "Terrain multisports", "lat": 6.30616, "lng": 48.66011, "commune": "Lenoncourt", "tags": ["football"]}, {"nom": "Plateau multisports", "lat": 0.66157, "lng": 43.12102, "commune": "Villeneuve-de-Rivière", "tags": ["football"]}, {"nom": "TERRAIN MULTISPORTS", "lat": 1.33808, "lng": 43.52496, "commune": "Villeneuve-Tolosane", "tags": ["football"]}, {"nom": "Espace Montaigne", "lat": -0.58219, "lng": 44.80282, "commune": "Talence", "tags": ["football"]}, {"nom": "City Stade de Sarcignan", "lat": -0.57825, "lng": 44.77638, "commune": "Villenave-d'Ornon", "tags": ["football"]}, {"nom": "City Stade", "lat": 4.10743120126426, "lng": 43.7302631650346, "commune": "Saint-Sériès", "tags": ["football"]}, {"nom": "City Stade", "lat": 4.06556, "lng": 49.2473, "commune": "Reims", "tags": ["petanque"]}, {"nom": "Terrain de hand ball", "lat": 5.83784, "lng": 48.9232, "commune": "Euvezin", "tags": ["petanque"]}, {"nom": "City-stade", "lat": 6.38364, "lng": 48.83717, "commune": "Jallaucourt", "tags": ["petanque"]}, {"nom": "Terrain multisport", "lat": 6.7751982, "lng": 49.1011299, "commune": "Macheren", "tags": ["petanque"]}, {"nom": "Terrain multisports", "lat": 6.40989, "lng": 48.90367, "commune": "Tincry", "tags": ["petanque"]}, {"nom": "Terrain multisports", "lat": 2.92865306138992, "lng": 47.3964100688078, "commune": "Cosne-Cours-sur-Loire", "tags": ["petanque"]}, {"nom": "City-stade", "lat": 6.3826, "lng": 48.98528, "commune": "Béchy", "tags": ["petanque"]}, {"nom": "Plateau EPS de plaine Wicar", "lat": 3.03383, "lng": 50.66698, "commune": "Marquette-lez-Lille", "tags": ["petanque"]}, {"nom": "Saint Roch", "lat": 3.06918, "lng": 50.67282, "commune": "Marquette-lez-Lille", "tags": ["petanque"]}, {"nom": "Les aviateurs", "lat": 3.06807, "lng": 50.6684, "commune": "Marquette-lez-Lille", "tags": ["petanque"]}, {"nom": "City Stade", "lat": 3.66619, "lng": 50.39277, "commune": "Quiévrechain", "tags": ["petanque"]}, {"nom": "Multisports Christ Roi", "lat": 7.7335601, "lng": 48.617111, "commune": "Bischheim", "tags": ["petanque"]}, {"nom": "Terrain multisports Cronenbourg", "lat": 7.734746, "lng": 48.603653, "commune": "Schiltigheim", "tags": ["petanque"]}, {"nom": "Plateau sportif proximité", "lat": 7.41408, "lng": 48.76874, "commune": "Steinbourg", "tags": ["petanque"]}, {"nom": "Multisports Guirbaden", "lat": 7.7634585, "lng": 48.6173679, "commune": "Bischheim", "tags": ["petanque"]}, {"nom": "Terrain multisports St Junien", "lat": 7.7236672, "lng": 48.6091632, "commune": "Schiltigheim", "tags": ["petanque"]}, {"nom": "Multisports Rotterdam", "lat": 7.78289551, "lng": 48.58363752, "commune": "Strasbourg", "tags": ["petanque"]}, {"nom": "Multisports Contades", "lat": 7.75789181, "lng": 48.59075204, "commune": "Strasbourg", "tags": ["petanque"]}, {"nom": "City Park", "lat": 4.82302, "lng": 45.12139, "commune": "Érôme", "tags": ["football"]}, {"nom": "City stade", "lat": 5.69888, "lng": 49.4867, "commune": "Cons-la-Grandville", "tags": []}, {"nom": "Terrain Multisport", "lat": 6.10394, "lng": 48.93283, "commune": "Lesménils", "tags": []}, {"nom": "City-stade", "lat": 5.858855, "lng": 49.305171, "commune": "Mairy-Mainville", "tags": []}, {"nom": "Terrain multisports", "lat": 6.1646, "lng": 48.9016, "commune": "Port-sur-Seille", "tags": []}, {"nom": "Citystade", "lat": 5.698499, "lng": 49.499345, "commune": "Villers-la-Chèvre", "tags": []}, {"nom": "City stade", "lat": 2.01922774320337, "lng": 43.3005543351283, "commune": "Saint-Martin-Lalande", "tags": ["tennis"]}, {"nom": "city stade", "lat": 0.594372, "lng": 49.651491, "commune": "Terres-de-Caux", "tags": []}, {"nom": "CITY STADE", "lat": 1.22311885359522, "lng": 49.9622021734751, "commune": "Petit-Caux", "tags": []}, {"nom": "Plateau EPS", "lat": 0.23263, "lng": 49.60544, "commune": "Turretot", "tags": []}, {"nom": "Citystade", "lat": 3.45063691958785, "lng": 49.9872360751033, "commune": "Bohain-en-Vermandois", "tags": ["football", "basket", "handball", "volley"]}, {"nom": "Citystade", "lat": 3.446438, "lng": 49.98424, "commune": "Bohain-en-Vermandois", "tags": ["football", "basket", "tennis", "volley"]}, {"nom": "Citystade", "lat": 3.28724305640208, "lng": 49.665124082585, "commune": "Tergnier", "tags": ["football", "basket"]}, {"nom": "Plateau EPS", "lat": 2.47877, "lng": 49.27273, "commune": "Nogent-sur-Oise", "tags": ["basket", "tennis", "handball"]}, {"nom": "Square du Mont saint Michel", "lat": 4.3431, "lng": 48.94404, "commune": "Châlons-en-Champagne", "tags": ["football"]}, {"nom": "City-stades", "lat": 4.36706, "lng": 48.97605, "commune": "Châlons-en-Champagne", "tags": ["football"]}, {"nom": "City-stades", "lat": 4.3354, "lng": 48.95102, "commune": "Châlons-en-Champagne", "tags": ["petanque"]}, {"nom": "Terrain multisports", "lat": 4.39237, "lng": 48.93552, "commune": "Châlons-en-Champagne", "tags": ["petanque"]}, {"nom": "Plateau EPS", "lat": 6.102928, "lng": 45.892102, "commune": "Annecy", "tags": ["petanque"]}, {"nom": "Plateau multisports", "lat": 1.43139, "lng": 43.48206, "commune": "Goyrans", "tags": ["tennis"]}, {"nom": "Plateau EPS", "lat": 6.102573, "lng": 45.888111, "commune": "Annecy", "tags": []}, {"nom": "City-stade", "lat": 5.58759391307831, "lng": 46.2947985555896, "commune": "Thoirette-Coisia", "tags": ["football"]}, {"nom": "TERRAIN MULTISPORT", "lat": 6.10894, "lng": 46.86888, "commune": "Courvières", "tags": ["football"]}, {"nom": "Sporadix", "lat": 6.07194, "lng": 46.2975, "commune": "Ségny", "tags": ["football", "basket", "tennis", "handball", "volley"]}, {"nom": "Plateau multisports", "lat": 5.22583, "lng": 45.92028, "commune": "Villieu-Loyes-Mollon", "tags": ["football", "basket", "tennis", "handball", "volley"]}, {"nom": "City stade", "lat": 2.52162, "lng": 49.13, "commune": "Orry-la-Ville", "tags": ["basket", "tennis", "handball", "volley"]}, {"nom": "PLATEAU MULTISPORT", "lat": 6.27824, "lng": 46.83656, "commune": "La Planée", "tags": ["football"]}, {"nom": "PLATEAU SPORTIF", "lat": 5.62637, "lng": 46.65795, "commune": "Briod", "tags": ["football"]}, {"nom": "City stade", "lat": 2.64924, "lng": 49.42974, "commune": "Estrées-Saint-Denis", "tags": ["petanque"]}, {"nom": "City stade", "lat": 4.73756, "lng": 45.98249, "commune": "Villefranche-sur-Saône", "tags": ["petanque"]}, {"nom": "Agorespace", "lat": 5.26886, "lng": 46.8461, "commune": "La Chapelle-Saint-Sauveur", "tags": ["petanque"]}, {"nom": "AGORESPACE FRONTON", "lat": 6.02972, "lng": 46.24833, "commune": "Saint-Genis-Pouilly", "tags": ["basket"]}, {"nom": "Terrain multisports", "lat": 4.748116, "lng": 45.93865, "commune": "Trévoux", "tags": ["basket", "handball"]}, {"nom": "Multisports les sabines", "lat": 3.86769, "lng": 43.58904, "commune": "Montpellier", "tags": ["football"]}, {"nom": "Multisports Celleneuve", "lat": 3.82238, "lng": 43.61437, "commune": "Montpellier", "tags": ["football"]}, {"nom": "Aire de Jeux", "lat": 2.83202, "lng": 43.38624, "commune": "Saint-Jean-de-Minervois", "tags": ["football"]}, {"nom": "TERRAIN MULTISPORT", "lat": 5.60497, "lng": 46.55892, "commune": "Dompierre-sur-Mont", "tags": ["football"]}, {"nom": "PLATEAU SPORTIF", "lat": 5.64911, "lng": 47.19397, "commune": "Sermange", "tags": ["football"]}, {"nom": "Agorespace", "lat": 5.71734, "lng": 45.15485, "commune": "Échirolles", "tags": ["football"]}, {"nom": "TERRAIN DE HAND/BASKET", "lat": 6.10783, "lng": 46.80786, "commune": "Bief-du-Fourg", "tags": ["football"]}, {"nom": "PLATEAU MULTISPORT", "lat": 5.6321, "lng": 46.50529, "commune": "Écrille", "tags": ["football", "tennis", "volley"]}, {"nom": "Terrain multisports", "lat": 4.25728, "lng": 49.01778, "commune": "Juvigny", "tags": ["petanque"]}, {"nom": "CITY STADE", "lat": 2.66626, "lng": 42.69131, "commune": "Néfiach", "tags": ["petanque"]}, {"nom": "City stade", "lat": 5.27972, "lng": 46.19083, "commune": "Saint-Just", "tags": ["football", "basket", "tennis", "handball"]}, {"nom": "City-stade", "lat": 2.836834, "lng": 50.304453, "commune": "Athies", "tags": ["football", "basket", "handball"]}, {"nom": "Aire de jeu", "lat": 4.51862, "lng": 46.22249, "commune": "Deux-Grosnes", "tags": ["petanque"]}, {"nom": "AGORESPACE", "lat": 6.32722, "lng": 46.29833, "commune": "Ballaison", "tags": ["petanque"]}, {"nom": "Terrain multisports", "lat": 4.52707, "lng": 47.89368, "commune": "Étrochey", "tags": ["football", "basket", "handball"]}, {"nom": "Plateau multisports", "lat": -0.440821051597595, "lng": 47.7904581539774, "commune": "Saint-Denis-d'Anjou", "tags": ["football"]}, {"nom": "Espace multisports", "lat": 1.28276109695435, "lng": 47.6319307117312, "commune": "Fossé", "tags": []}, {"nom": "Plateau Multisports", "lat": 3.07077, "lng": 50.42741, "commune": "Raimbeaucourt", "tags": ["petanque"]}, {"nom": "Equipement sportif de proximité", "lat": 4.13454, "lng": 46.61836, "commune": "Marly-sur-Arroux", "tags": ["petanque"]}, {"nom": "CITY STADE", "lat": 1.51503, "lng": 43.69535, "commune": "Lapeyrouse-Fossat", "tags": ["tennis"]}, {"nom": "TERRAIN  DE SPORTS", "lat": 5.28957, "lng": 47.92068, "commune": "Chanoy", "tags": ["football"]}, {"nom": "Terrain Multisports", "lat": -1.30798, "lng": 48.34408, "commune": "Saint-Sauveur-des-Landes", "tags": ["football"]}, {"nom": "plateau EPS", "lat": 4.82348, "lng": 45.68869, "commune": "Irigny", "tags": ["petanque"]}, {"nom": "Plateau EPS", "lat": 6.181, "lng": 47.6552, "commune": "Villeparois", "tags": ["petanque"]}, {"nom": "Terrain de pétanque", "lat": 4.64752, "lng": 46.45715, "commune": "Lournand", "tags": ["petanque"]}, {"nom": "AGORESPACE", "lat": 6.06871, "lng": 45.93937, "commune": "Epagny Metz-Tessy", "tags": ["petanque"]}, {"nom": "DECAPARK", "lat": 2.5301086, "lng": 44.1695505, "commune": "Cassagnes-Bégonhès", "tags": ["tennis"]}, {"nom": "City stade", "lat": 2.45906, "lng": 49.20071, "commune": "Chantilly", "tags": ["basket", "handball"]}, {"nom": "City-stade", "lat": 3.408825, "lng": 50.262214, "commune": "Haspres", "tags": ["petanque"]}, {"nom": "Plateau sportif", "lat": 7.09968, "lng": 48.05348, "commune": "Stosswihr", "tags": ["petanque"]}, {"nom": "City-stade", "lat": 4.02299402494205, "lng": 46.4927582186404, "commune": "Digoin", "tags": ["petanque"]}, {"nom": "City stade des clochettes", "lat": 4.858481, "lng": 45.69607, "commune": "Saint-Fons", "tags": ["petanque"]}, {"nom": "AGORESPACE", "lat": 6.0709, "lng": 45.91937, "commune": "Poisy", "tags": ["petanque"]}, {"nom": "Plateau E.P.S.", "lat": -3.50925, "lng": 48.26717, "commune": "Le Moustoir", "tags": ["basket"]}, {"nom": "Terrain multisport", "lat": 3.97429, "lng": 48.27148, "commune": "Torvilliers", "tags": ["basket"]}, {"nom": "Plateau EPS", "lat": -3.5316, "lng": 47.89891, "commune": "Tréméven", "tags": ["football", "basket", "handball"]}, {"nom": "Plateau Multisports", "lat": -0.73281, "lng": 46.00244, "commune": "Saint-Crépin", "tags": ["football"]}, {"nom": "Terrain multisports", "lat": 4.49099, "lng": 47.53596, "commune": "Alise-Sainte-Reine", "tags": ["football"]}, {"nom": "Plateau omnisports", "lat": 4.84952, "lng": 47.10221, "commune": "Échevronne", "tags": ["football"]}, {"nom": "Plateau d'évolution", "lat": 4.97261, "lng": 47.10984, "commune": "Quincey", "tags": ["football"]}, {"nom": "Terrain multisports", "lat": 4.31273, "lng": 48.87626, "commune": "Nuisement-sur-Coole", "tags": ["football"]}, {"nom": "terrain de sport", "lat": 6.27475, "lng": 47.04066, "commune": "Mouthier-Haute-Pierre", "tags": ["football"]}, {"nom": "TERRAIN MULTISPORTS", "lat": 1.1464, "lng": 43.52885, "commune": "Saiguède", "tags": ["football"]}, {"nom": "CITY STADE", "lat": -0.320431, "lng": 44.858176, "commune": "Saint-Germain-du-Puch", "tags": ["football"]}, {"nom": "Agorespace Rocheplaine", "lat": 5.67525, "lng": 45.24141, "commune": "Saint-Égrève", "tags": ["football", "handball"]}, {"nom": "Plateau multisports", "lat": -0.91901, "lng": 48.12177, "commune": "Olivet", "tags": ["petanque"]}, {"nom": "Plateau sportif", "lat": 3.641952, "lng": 50.215892, "commune": "Louvignies-Quesnoy", "tags": ["petanque"]}, {"nom": "Plateau sportif", "lat": 7.27435, "lng": 47.58318, "commune": "Bettendorf", "tags": ["petanque"]}, {"nom": "Plateau sportif", "lat": 7.0269, "lng": 47.79453, "commune": "Bourbach-le-Haut", "tags": ["petanque"]}, {"nom": "PLATEAU EPS", "lat": 2.37415, "lng": 42.65058, "commune": "Campôme", "tags": ["petanque"]}, {"nom": "terrain multisports", "lat": 4.64475, "lng": 45.87596, "commune": "Châtillon", "tags": ["petanque"]}, {"nom": "plateau sportif", "lat": 4.57007, "lng": 45.74059, "commune": "Courzieu", "tags": ["petanque"]}, {"nom": "Plateau EPS", "lat": 6.38444, "lng": 47.7242, "commune": "Dambenoît-lès-Colombe", "tags": ["petanque"]}, {"nom": "terrain multisports", "lat": 4.64226, "lng": 46.04095, "commune": "Salles-Arbuissonnas-en-Beaujolais", "tags": ["petanque"]}, {"nom": "Plateau sportif de Rouffigny", "lat": -1.25173687929419, "lng": 48.8037521391971, "commune": "Villedieu-les-Poêles-Rouffigny", "tags": ["petanque"]}, {"nom": "City parc", "lat": 5.3983, "lng": 46.19152, "commune": "Villereversure", "tags": ["football", "basket", "tennis", "handball", "volley"]}, {"nom": "Plateau multisports", "lat": 3.24186, "lng": 49.46125, "commune": "Épagny", "tags": ["football", "basket", "tennis", "volley"]}, {"nom": "City stade", "lat": -0.260659, "lng": 49.277229, "commune": "Ouistreham", "tags": ["football", "basket"]}, {"nom": "Terrain stabilisé", "lat": 5.0027, "lng": 47.31384, "commune": "Dijon", "tags": ["football"]}, {"nom": "Fronton multisports", "lat": 4.74467, "lng": 46.58, "commune": "Champagny-sous-Uxelles", "tags": ["petanque"]}, {"nom": "Terrain multisports", "lat": 6.71197074, "lng": 49.1675439, "commune": "Carling", "tags": ["football", "basket", "tennis", "handball", "volley"]}, {"nom": "Terrain multisports", "lat": -0.66331, "lng": 47.575484, "commune": "Longuenée-en-Anjou", "tags": ["football", "basket", "handball", "volley"]}, {"nom": "Plateau omnisports", "lat": 5.25038, "lng": 47.25741, "commune": "Labergement-Foigney", "tags": ["football"]}, {"nom": "city-stade", "lat": 4.89639, "lng": 45.11272, "commune": "Chantemerle-les-Blés", "tags": ["football"]}, {"nom": "CITY STADE", "lat": 5.32452, "lng": 47.84803, "commune": "Langres", "tags": ["football"]}, {"nom": "ESPACE MULTI-SPORT", "lat": 5.15196, "lng": 48.17872, "commune": "Riaucourt", "tags": ["football"]}, {"nom": "City-stade", "lat": 5.042641, "lng": 45.043791, "commune": "Romans-sur-Isère", "tags": ["football"]}, {"nom": "City park", "lat": 4.81594, "lng": 45.13761, "commune": "Serves-sur-Rhône", "tags": ["football"]}, {"nom": "Plateau sportif", "lat": -1.27905737, "lng": 47.46277568, "commune": "Teillé", "tags": ["football"]}, {"nom": "City-Stade", "lat": 2.49752, "lng": 49.33081, "commune": "Verderonne", "tags": ["handball"]}, {"nom": "City-stade Barincou", "lat": -0.36074, "lng": 43.31998, "commune": "Pau", "tags": ["petanque"]}, {"nom": "AGORESPACE", "lat": 6.2218, "lng": 45.9074, "commune": "Dingy-Saint-Clair", "tags": ["petanque"]}, {"nom": "Plateau multisports", "lat": 6.83134, "lng": 47.51236, "commune": "Sochaux", "tags": []}, {"nom": "Aire de jeux city-stade", "lat": 1.31949, "lng": 43.46397, "commune": "Muret", "tags": ["tennis"]}, {"nom": "AGORESPACE", "lat": 6.15778, "lng": 45.97667, "commune": "Charvonnex", "tags": []}, {"nom": "Plateau EPS", "lat": 1.13361, "lng": 49.46063, "commune": "Rouen", "tags": []}, {"nom": "Terrain multisports", "lat": 1.06466, "lng": 49.39573, "commune": "Saint-Étienne-du-Rouvray", "tags": []}, {"nom": "Citystade", "lat": 3.10188, "lng": 49.25902, "commune": "Villers-Cotterêts", "tags": ["football", "basket"]}, {"nom": "City stade des 2 Victoires", "lat": 4.07044, "lng": 46.04911, "commune": "Roanne", "tags": ["football", "basket", "handball"]}, {"nom": "City Stade", "lat": 7.68765, "lng": 48.33264, "commune": "Boofzheim", "tags": ["petanque"]}, {"nom": "Plateau EPS", "lat": 4.424091, "lng": 45.977316, "commune": "Saint-Appolinaire", "tags": ["petanque"]}, {"nom": "City stade du port", "lat": 4.08388, "lng": 46.03872, "commune": "Roanne", "tags": ["tennis"]}, {"nom": "Plateau EPS", "lat": 6.471497, "lng": 46.359136, "commune": "Thonon-les-Bains", "tags": []}, {"nom": "Plateau EPS", "lat": 6.502592, "lng": 46.380901, "commune": "Thonon-les-Bains", "tags": []}, {"nom": "Terrain multisports de la Warenne", "lat": 4.68804, "lng": 49.76147, "commune": "Charleville-Mézières", "tags": ["football", "basket", "handball"]}, {"nom": "Plateau multisports", "lat": 6.83713, "lng": 47.5158, "commune": "Sochaux", "tags": ["basket", "handball"]}, {"nom": "site AGORESPACE", "lat": 5.961783, "lng": 47.257126, "commune": "Pirey", "tags": ["football"]}, {"nom": "City stade", "lat": 2.4397, "lng": 49.16607, "commune": "Lamorlaye", "tags": ["petanque"]}, {"nom": "terrain multisports", "lat": 4.52779, "lng": 45.74946, "commune": "Brussieu", "tags": ["petanque"]}, {"nom": "Terrain multisports Rouget de l'Isle", "lat": 4.71862, "lng": 49.78544, "commune": "Charleville-Mézières", "tags": []}, {"nom": "Terrain Multisport Salengro", "lat": 4.71697, "lng": 49.75141, "commune": "Charleville-Mézières", "tags": []}, {"nom": "City stade - Leucate Village", "lat": 3.03165, "lng": 42.90857, "commune": "Leucate", "tags": ["basket"]}, {"nom": "Microsite", "lat": 7.12694444, "lng": 43.81805556, "commune": "Bouyon", "tags": ["football", "basket", "handball"]}, {"nom": "City Stade", "lat": -4.27917, "lng": 48.45264, "commune": "Landerneau", "tags": ["football", "basket", "handball"]}, {"nom": "City Stade", "lat": -3.89645, "lng": 48.19249, "commune": "Lennon", "tags": ["football", "basket", "handball"]}, {"nom": "Terrain multisports extérieur", "lat": -0.738335, "lng": 48.763125, "commune": "Tinchebray-Bocage", "tags": ["football", "basket", "handball"]}, {"nom": "Terrain multisports", "lat": 0.036503076498775, "lng": 48.8453708589213, "commune": "Trun", "tags": ["football", "basket", "handball"]}, {"nom": "CITY STADE", "lat": 4.400928, "lng": 44.520581, "commune": "Saint-Maurice-d'Ardèche", "tags": ["football", "basket", "handball"]}, {"nom": "City Stade Croix de Metz", "lat": 5.89576631784439, "lng": 48.690852016216, "commune": "Toul", "tags": ["football", "basket", "handball"]}, {"nom": "Plateforme multisport", "lat": 5.24598, "lng": 49.48604, "commune": "Baâlon", "tags": ["football", "basket", "handball"]}, {"nom": "City Stade", "lat": 4.40008610486984, "lng": 44.4106927857574, "commune": "Vallon-Pont-d'Arc", "tags": ["football", "basket", "handball"]}, {"nom": "Terrain multisports", "lat": 5.01823, "lng": 48.85642, "commune": "Villers-aux-Vents", "tags": ["football", "basket", "handball"]}, {"nom": "City stade du parc central", "lat": 6.93959, "lng": 49.17329, "commune": "Behren-lès-Forbach", "tags": ["football", "basket", "tennis", "handball", "volley"]}, {"nom": "City stade", "lat": 6.9318686, "lng": 49.1672221, "commune": "Behren-lès-Forbach", "tags": ["football", "basket", "tennis", "handball", "volley"]}, {"nom": "City stade", "lat": 6.93568, "lng": 49.16963, "commune": "Behren-lès-Forbach", "tags": ["football", "basket", "tennis", "handball", "volley"]},